stop_id,stop_code,stop_name,stop_desc,platform_code,stop_lat,stop_lon,zone_id,stop_url,location_type,parent_station,stop_timezone,wheelchair_boarding,preferred
9700,9700,HWY 7 / MARTIN GROVE,5601 Highway 7 HIGHWAY 7 & MARTIN GROVE RD,,43.775925,-79.608653,1,,0, ,,1,1
9701,9701,HWY 7 / KIPLING,5263 HIGHWAY 7 & KIPLING AV,,43.778488,-79.597505,1,,0, ,,1,1
9702,9702,HWY 7 / KIPLING,7765 HIGHWAY 7 & KIPLING AV,,43.778903,-79.597043,1,,0, ,,1,1
9703,9703,HWY 7 / ISLINGTON,7730 HIGHWAY 7 & ISLINGTON AV,,43.78047,-79.589548,1,,0, ,,1,1
9704,9704,HWY 7 / ISLINGTON,5020 HIGHWAY 7 & ISLINGTON AV,,43.780547,-79.590232,1,,0, ,,1,1
9705,9705,HWY 7 / PINE VALLEY,4499 HIGHWAY 7 & PINE VALLEY DR,,43.7842,-79.572199,1,,0, ,,1,2
9706,9706,HWY 7 / PINE VALLEY,4500-4600 HIGHWAY 7 & PINE VALLEY DR,,43.783988,-79.573933,1,,0, ,,1,2
9707,9707,HWY 7 / ANSLEY GROVE,200-210 HIGHWAY 7 & WHITMORE RD,,43.787695,-79.555273,1,,0, ,,1,2
9708,9708,HWY 7 / ANSLEY GROVE,3940 HIGHWAY 7 & ANSLEY GROVE RD,,43.78751,-79.556974,1,,0, ,,1,2
9709,9709,HWY 7 / WESTON,HIGHWAY 7 & WESTON RD,,43.789586,-79.546424,1,,0, ,,1,2
9710,9710,HWY 7 / WESTON,HIGHWAY 7 & WESTON RD,,43.78917,-79.548425,1,,0, ,,1,2
9718,9718,CENTRE / DUFFERIN,1465 CENTRE ST & DUFFERIN ST,,43.805848,-79.473646,1,,0, ,,1,2
9719,9719,CENTRE / DUFFERIN,1475 CENTRE ST & DUFFERIN ST,,43.805524,-79.475549,1,,0, ,,1,2
9721,9721,BATHURST / ATKINSON,8001 Bathurst St. BATHURST ST & ATKINSON AV,,43.81788,-79.451702,1,,0, ,,1,2
9722,9722,BATHURST / ATKINSON,8000 Bathurst St. BATHURST ST & ATKINSON AV,,43.816601,-79.451454,1,,0, ,,1,2
9723,9723,RICHMOND HILL CENTRE PLATFORM 4,8705-8735 Yonge St. PLATFORM 4,4,43.839979,-79.425631,1,,0,10,,1,1
9724,9724,HWY 7 / BAYVIEW,249 HIGHWAY 7 & BAYVIEW AV,,43.840071,-79.405542,1,,0, ,,1,2
9725,9725,HWY 7 / BAYVIEW,250 HIGHWAY 7 & BAYVIEW AV,,43.84019,-79.405394,1,,0, ,,1,2
9726,9726,HWY 7 / VALLEYMEDE,425 HIGHWAY 7 & TIMES AV,,43.842282,-79.391193,1,,0, ,,1,2
9727,9727,HWY 7 / VALLEYMEDE,420 HIGHWAY 7 & VALLEYMEDE DR,,43.84207,-79.392761,1,,0, ,,1,2
9728,9728,HWY 7 / WEST BEAVER CREEK,505 HIGHWAY 7 & COMMERCE VALLEY DR,,43.843494,-79.386044,1,,0, ,,1,2
9729,9729,HWY 7 / WEST BEAVER CREEK,HIGHWAY 7 & WEST BEAVER CREEK RD,,43.843223,-79.387352,1,,0, ,,1,2
9730,9730,HWY 7 / LESLIE,600 HIGHWAY 7 & LESLIE ST,,43.844456,-79.381701,1,,0, ,,1,2
9731,9731,HWY 7 / LESLIE,HIGHWAY 7 & LESLIE ST,,43.844221,-79.383281,1,,0, ,,1,2
9732,9732,HWY 7 / EAST BEAVER CREEK,675 HIGHWAY 7 & COMMERCE VALLEY DR,,43.845498,-79.377206,1,,0, ,,1,2
9733,9733,HWY 7 / EAST BEAVER CREEK,670 Highway 7 East HIGHWAY 7 & EAST BEAVER CREEK,,43.845323,-79.378708,1,,0, ,,1,2
9734,9734,HWY 7 / ALLSTATE,2831 HIGHWAY 7 & EAST VALHALLA DR,,43.848661,-79.363611,1,,0, ,,1,2
9735,9735,HWY 7 / ALLSTATE,2830 HIGHWAY 7 & ALLSTATE PKWY,,43.848623,-79.363986,1,,0, ,,1,2
9736,9736,HWY 7 / WOODBINE,3075 HIGHWAY 7 & WOODBINE AV,,43.849755,-79.35856,1,,0, ,,1,2
9737,9737,HWY 7 / WOODBINE,3070 HIGHWAY 7 & WOODBINE AV,,43.849739,-79.358978,1,,0, ,,1,2
9738,9738,HWY 7 / MONTGOMERY,3105-3175 HIGHWAY 7 & FAIRBURN DR,,43.851287,-79.35123,1,,0, ,,1,2
9739,9739,HWY 7 / MONTGOMERY,3200 HIGHWAY 7 & MONTGOMERY CRT,,43.851056,-79.352725,1,,0, ,,1,2
9740,9740,HIGHWAY 7 / TOWN CENTRE,3575 HIGHWAY 7 & TOWN CENTRE BLVD,,43.853934,-79.339783,1,,0, ,,1,2
9741,9741,HIGHWAY 7 / TOWN CENTRE,3575 HIGHWAY 7 & TOWN CENTRE BLVD,,43.853922,-79.340128,1,,0, ,,1,2
9742,9742,ENTERPRISE BLVD / WARDEN AV,8133 ENTERPRISE BLVD & WARDEN AV,,43.848886,-79.331141,1,,0, ,,1,2
9743,9743,ENTERPRISE BLVD / WARDEN AV,8213-8233 ENTERPRISE BLVD & WARDEN AV,,43.848882,-79.331565,1,,0, ,,1,2
9744,9744,UNIVERSITY BLVD / YMCA BLVD,101 YMCA Blvd UNIVERSITY BLVD & YMCA BLVD,,43.853503,-79.311311,1,,0, ,,1,1
9745,9745,UNIVERSITY BLVD / YMCA BLVD,101 YMCA Blvd UNIVERSITY BLVD & YMCA BLVD,,43.853091,-79.311274,1,,0, ,,1,1
9748,9748,KENNEDY RD / HWY 7,8500 Kennedy Rd KENNEDY RD & HIGHWAY 7,,43.86215,-79.303634,1,,0, ,,1,1
9749,9749,HWY 7 / BULLOCK,4981 HIGHWAY 7 & BULLOCK DR,,43.865302,-79.292103,1,,0, ,,1,1
9750,9750,HWY 7 / BULLOCK,4980 HIGHWAY 7 & BULLOCK DR,,43.865408,-79.292544,1,,0, ,,1,1
9751,9751,HWY 7 / MCCOWAN,5261 Highway 7 HIGHWAY 7 & MCCOWAN RD,,43.867217,-79.283868,1,,0, ,,1,1
9752,9752,HWY 7 / MCCOWAN,5260 Highway 7 E HIGHWAY 7 & MCCOWAN RD,,43.86708,-79.285212,1,,0, ,,1,1
9769,9769,FINCH GO BUS TERMINAL PLATFORM 2,5697 YONGE ST FINCH GO BUS TERMINAL & PLATFORM 2,2,43.782133,-79.415497,1,,0,20,,1,1
9770,9770,YONGE / STEELES,7015 Yonge St YONGE ST & STEELES AV,,43.798695,-79.42011,1,,0, ,,1,1
9771,9771,YONGE / CLARK,7345-7359 Yonge St YONGE ST & CLARK AV,,43.807001,-79.422192,1,,0, ,,1,1
9772,9772,YONGE / CLARK,7368 Yonge St 1A YONGE ST & CLARK AV,,43.807246,-79.422566,1,,0, ,,1,1
9773,9773,YONGE / CENTRE,7751 Yonge St YONGE ST & THORNHILL SUMMIT DR,,43.816215,-79.424299,1,,0, ,,1,1
9774,9774,YONGE / CENTRE,7756 Yonge St YONGE ST & CENTRE ST,,43.816482,-79.424704,1,,0, ,,1,1
9775,9775,YONGE / ROYAL ORCHARD,YONGE ST & ROYAL ORCHARD BLVD,,43.822633,-79.425788,1,,0, ,,1,1
9776,9776,YONGE / ROYAL ORCHARD,7934-8000 Yonge St YONGE ST & ROYAL ORCHARD BLVD,,43.822276,-79.426035,1,,0, ,,1,1
9777,9777,YONGE / BANTRY-SCOTT,8997 Yonge Street YONGE ST & BANTRY AVE,,43.847009,-79.431511,1,,0, ,,1,2
9778,9778,YONGE / BANTRY-SCOTT,8956 Yonge Street YONGE ST & SCOTT DR,,43.845794,-79.43136,1,,0, ,,1,2
9779,9779,YONGE / 16TH-CARRVILLE,9261 Yonge Street YONGE ST & 16TH AV,,43.853739,-79.433174,1,,0, ,,1,2
9780,9780,YONGE / 16TH-CARRVILLE,9226 Yonge Street YONGE ST & 16TH AV,,43.852332,-79.432872,1,,0, ,,1,2
9781,9781,YONGE / WELDRICK,9601 Yonge Street YONGE ST & WELDRICK RD,,43.860929,-79.434857,1,,0, ,,1,2
9782,9782,YONGE / WELDRICK,9450 Yonge Street YONGE ST & WELDRICK RD,,43.85951,-79.434594,1,,0, ,,1,2
9783,9783,YONGE / MAJOR MACKENZIE,9921 Yonge Street YONGE ST & MAJOR MACKENZIE DR,,43.869916,-79.436922,1,,0, ,,1,2
9784,9784,YONGE / MAJOR MACKENZIE,9900 Yonge Street YONGE ST & MAJOR MACKENZIE DR,,43.869694,-79.436957,1,,0, ,,1,2
9785,9785,YONGE / CROSBY,10375 Yonge St YONGE ST & CROSBY AV,,43.88046,-79.439272,1,,0, ,,1,1
9786,9786,YONGE / CROSBY,10330 Yonge St 815 YONGE ST & CROSBY AV,,43.8795,-79.439322,1,,0, ,,1,1
9787,9787,YONGE / ELGIN MILLS,10735 Yonge Street YONGE ST & ELGIN MILLS RD,,43.890312,-79.441653,1,,0, ,,1,2
9788,9788,YONGE / ELGIN MILLS,10730 Yonge Street YONGE ST & ELGIN MILLS RD,,43.888943,-79.44141,1,,0, ,,1,2
9789,9789,BERNARD TERMINAL PLATFORM 2,10909 YONGE ST BERNARD TERMINAL & PLATFORM 2,2,43.894363,-79.442077,1,,0,11,,1,1
9790,9790,YONGE / BERNARD,10921 Yonge Street YONGE ST & BERNARD AV,,43.895489,-79.442777,1,,0, ,,1,2
9791,9791,YONGE / BERNARD,10960 Yonge Street YONGE ST & BERNARD AVE,,43.894221,-79.442618,1,,0, ,,1,2
9792,9792,YONGE / 19TH-GAMBLE,11551 Yonge Street YONGE ST & 19TH AV,,43.908521,-79.445923,1,,0, ,,1,2
9793,9793,YONGE / 19TH-GAMBLE,11490 Yonge Street YONGE ST & GAMBLE RD,,43.907265,-79.445742,1,,0, ,,1,2
9794,9794,YONGE / KING,13025 Yonge St YONGE ST & KING RD,,43.945095,-79.454715,1,,0, ,,1,1
9795,9795,YONGE / KING,13008 Yonge St YONGE ST & KING RD,,43.944757,-79.45489,1,,0, ,,1,1
9796,9796,YONGE / BLOOMINGTON,13723 Yonge St YONGE ST & BLOOMINGTON RD,,43.962687,-79.458595,1,,0, ,,1,1
9797,9797,YONGE / BLOOMINGTON,13720 Yonge St YONGE ST & BLOOMINGTON RD,,43.963169,-79.459051,1,,0, ,,2,1
9798,9798,YONGE / HENDERSON,14591 Yonge St YONGE ST & ALLAURA BLVD,,43.984317,-79.463698,1,,0, ,,1,1
9799,9799,YONGE / HENDERSON,14590 Yonge St YONGE ST & HENDERSON DR,,43.983182,-79.463744,1,,0, ,,1,1
9800,9800,YONGE / GOLF LINKS,14879 Yonge St YONGE ST & DUNNING AV,,43.990762,-79.465357,1,,0, ,,1,1
9801,9801,YONGE / GOLF LINKS,YONGE ST & GOLF LINKS DR,,43.99008,-79.465388,1,,0, ,,1,1
9802,9802,YONGE / WELLINGTON,15255 Yonge St YONGE ST & WELLINGTON ST,,43.999943,-79.467575,1,,0, ,,1,1
9803,9803,YONGE / WELLINGTON,15278 Yonge St YONGE ST & WELLINGTON ST,,44.000178,-79.46778,1,,0, ,,1,1
9804,9804,YONGE / ORCHARD HEIGHTS,15611 Yonge St YONGE ST & BATSON DR,,44.008802,-79.469693,1,,0, ,,1,1
9805,9805,YONGE / ORCHARD HEIGHTS,15612 Yonge St YONGE ST & ORCHARD HEIGHTS BLVD,,44.00852,-79.469833,1,,0, ,,1,1
9806,9806,YONGE / MULOCK,16765 Yonge Street YONGE ST & MULOCK DR,,44.03693,-79.476055,1,,0, ,,1,2
9807,9807,YONGE / MULOCK,16710 Yonge Street YONGE ST & MULOCK DR,,44.035616,-79.47596,1,,0, ,,1,2
9808,9808,YONGE ST / EAGLE ST,17080 Yonge Street YONGE ST & EAGLE ST,,44.04484,-79.478038,1,,0, ,,1,2
9809,9809,NEWMARKET TERMINAL PLATFORM 9,320 EAGLE ST W NEWMARKET TERMINAL & PLATFORM 9,9,44.052893,-79.48644,1,,0,12,,1,1
9810,9810,MARKHAM STOUFFVILLE HOSPITAL,377 Church St CHURCH ST & COUNTRY GLEN RD,,43.884803,-79.232901,1,,0, ,,1,1
9817,9817,YONGE / STEELES,7010 Yonge St YONGE ST & STEELES AV,,43.798244,-79.420274,1,,0, ,,1,1
9818,9818,YONGE ST / EAGLE ST,17135 Yonge Street YONGE ST & EAGLE ST,,44.046147,-79.478257,1,,0, ,,1,2
9819,9819,RICHMOND HILL CENTRE PLATFORM 3,8705-8735 Yonge St. PLATFORM 3,3,43.840009,-79.425411,1,,0,10,,1,1
9820,9820,RICHMOND HILL CENTRE PLATFORM 1,8705-8735 Yonge St. PLATFORM 1,1,43.840199,-79.425598,1,,0,10,,1,1
9821,9821,RICHMOND HILL CENTRE PLATFORM 2,8705-8735 Yonge St. PLATFORM 2,2,43.840195,-79.425775,1,,0,10,,1,1
1151,1151,15TH SDRD / DUFFERIN ST,,,43.95229,-79.508964,1,,0, ,,2,1
1271,1271,YONGE ST / AURORA HEIGHTS DR,,,44.003562,-79.468625,1,,0, ,,2,1
1326,1326,BUR OAK AV / MARKHAM RD,,,43.900394,-79.265616,1,,0, ,,1,1
1340,1340,ANGUS GLEN C.C. STOP # 1340,3990 MAJOR MACKENZIE DR,,43.894645,-79.337417,1,,0, ,,1,1
1349,1349,JOHN ST / BAYVIEW AV,,,43.818836,-79.40051,1,,0, ,,1,1
1373,1373,CLARK AV / YONGE ST,,,43.806919,-79.423692,1,,0, ,,1,1
1375,1375,CLARK AV / SPRINGFIELD WAY,,,43.806887,-79.426676,1,,0, ,,1,1
1377,1377,CLARK AV / CHARLES ST,,,43.806692,-79.432699,1,,0, ,,1,1
1378,1378,CLARK AV / HILDA AV,,,43.805606,-79.437772,1,,0, ,,1,1
1380,1380,CLARK AV / ATKINSON AV,,,43.805047,-79.440512,1,,0, ,,1,1
1382,1382,CLARK AV / YORK HILL BLVD,,,43.804204,-79.444741,1,,0, ,,1,1
1384,1384,CLARK AV / BATHURST ST,,,43.803492,-79.449365,1,,0, ,,1,1
1386,1386,CLARK AV / SOUTH PROMENADE,,,43.803107,-79.451124,1,,0, ,,1,1
1390,1390,CLARK AV STOP # 1390,,,43.802265,-79.460446,1,,0, ,,1,1
1392,1392,CLARK AV / JUDITH AV,,,43.800809,-79.46458,1,,0, ,,1,1
1394,1394,CLARK AV / BROWNRIDGE DR,,,43.799149,-79.466547,1,,0, ,,1,1
1396,1396,CLARK AV STOP # 1396,,,43.798071,-79.468905,1,,0, ,,1,1
1398,1398,CLARK AV / DUFFERIN ST,,,43.797623,-79.471012,1,,0, ,,1,1
1400,1400,CLARK AV STOP # 1400,,,43.797406,-79.471157,1,,0, ,,1,1
1402,1402,CLARK AV STOP # 1402,,,43.797794,-79.469322,1,,0, ,,1,1
1404,1404,CLARK AV / JOSEPH AARON BLVD,,,43.798697,-79.466937,1,,0, ,,1,1
1406,1406,CLARK AV / STONEMILL GATE,,,43.800394,-79.464827,1,,0, ,,1,1
1408,1408,CLARK AV STOP # 1408,,,43.802128,-79.460335,1,,0, ,,1,1
1410,1410,CLARK AV / NEW WESTMINSTER DR,,,43.801931,-79.458114,1,,0, ,,1,1
1412,1412,CLARK AV STOP # 1412,,,43.801771,-79.457123,1,,0, ,,1,1
1413,1413,MAJOR MACKENZIE DR / ANGUS GLEN BLV,MAJOR MACKENZIE DR & ANGUS GLEN BLVD,,43.894416,-79.333537,1,,0, ,,1,1
1414,1414,CLARK AV / SOUTH PROMENADE,,,43.802786,-79.451552,1,,0, ,,1,1
1416,1416,CLARK AV / BATHURST ST,,,43.80359,-79.447408,1,,0, ,,1,1
1420,1420,CLARK AV / YORK HILL BLVD,,,43.804005,-79.445075,1,,0, ,,1,1
1422,1422,CLARK AV / ATKINSON AV,,,43.804899,-79.440044,1,,0, ,,1,1
1424,1424,CLARK AV / HILDA AV,,,43.805531,-79.437017,1,,0, ,,1,1
1426,1426,CLARK AV / CHARLES ST,,,43.806408,-79.433292,1,,0, ,,1,1
1428,1428,CLARK AV / YORK HILL BLVD,,,43.806892,-79.427322,1,,0, ,,1,1
1430,1430,CLARK AV / YONGE ST,,,43.806933,-79.422827,1,,0, ,,1,1
1436,1436,GLEN SHIELDS AV / DUFFERIN ST,,,43.801692,-79.474139,1,,0, ,,2,1
1438,1438,GLEN SHIELDS AV / OAKMOUNT CRES,,,43.800709,-79.476885,1,,0, ,,1,1
1440,1440,GLEN SHIELDS AV / OAKMOUNT CRES,,,43.799094,-79.478377,1,,0, ,,2,1
1442,1442,GLEN SHIELDS AV / CROOKED STICK RD,GLEN SHIELDS AVE & CROOKED STICK RD,,43.797843,-79.479231,1,,0, ,,2,1
1444,1444,GLEN SHIELDS AV / NEW SEABURY DR,,,43.796156,-79.480969,1,,0, ,,1,1
1446,1446,GLEN SHIELDS AV / BAY HILL DR,,,43.793753,-79.481792,1,,0, ,,1,1
1450,1450,GLEN SHIELDS AV / SPYGLASS HILL RD,GLEN SHIELDS AVE & SPYGLASS HILL RD,,43.791647,-79.482822,1,,0, ,,1,1
1452,1452,GLEN SHIELDS AV / ROYAL COLWOOD CRT,GLEN SHIELDS AVE & ROYAL COLWOOD CRT,,43.791409,-79.478003,1,,0, ,,1,1
1454,1454,GLEN SHIELDS AV / RIVIERA DR,,,43.791853,-79.47594,1,,0, ,,2,1
1456,1456,GLEN SHIELDS AV / CHERRY HILLS RD,GLEN SHIELDS AVE & CHERRY HILLS RD,,43.792329,-79.473873,1,,0, ,,1,1
1458,1458,GLEN SHIELDS AV / DUFFERIN ST,,,43.792264,-79.4724,1,,0, ,,1,1
1460,1460,GLEN SHIELDS AV / DUFFERIN ST,GLEN SHIELDS AVE & DUFFERIN ST,,43.792423,-79.471912,1,,0, ,,1,1
1462,1462,GLEN SHIELDS AV / CHERRY HILLS DR,,,43.792447,-79.47387,1,,0, ,,2,1
1464,1464,GLEN SHIELDS AV / RIVIERA DR,GLEN SHIELDS AVE & RIVIERA DR,,43.791888,-79.476335,1,,0, ,,1,1
1616,1616,WOODBINE AV / PERSONNA BLVD,,,43.880997,-79.365843,1,,0, ,,1,1
1618,1618,MAJOR MACKENZIE DR / WOODBINE AV,,,43.886178,-79.366788,1,,0, ,,2,1
1622,1622,HILLMOUNT RD / HOPECREST RD,,,43.876342,-79.368658,1,,0, ,,2,1
1624,1624,HILLMOUNT RD / WOODBINE AV,,,43.876642,-79.365701,1,,0, ,,1,1
1663,1663,DUFFERIN ST STOP # 1663,,,43.794963,-79.472119,1,,0, ,,1,1
1664,1664,WOODBINE AV / MAJOR MACKENZIE DR,,,43.884408,-79.366976,1,,0, ,,1,1
1665,1665,GLEN SHIELDS AV / ROYAL COLWOOD CRT,GLEN SHIELDS AVE & ROYAL COLWOOD CRT,,43.791498,-79.478103,1,,0, ,,1,1
1666,1666,WOODBINE AV / OAKFORD DR,,,43.881318,-79.366257,1,,0, ,,1,1
1668,1668,WOODBINE AV / HILLMOUNT RD,,,43.876989,-79.365167,1,,0, ,,1,1
1669,1669,GLEN SHIELDS AV / SPYGLASS HILL RD,GLEN SHIELDS AVE & SPYGLASS HILL RD,,43.791331,-79.48221,1,,0, ,,1,1
1670,1670,HILLMOUNT RD / HOPECREST RD,,,43.876536,-79.368041,1,,0, ,,1,1
1671,1671,GLEN SHIELDS AV / QUAKER RIDGE RD,,,43.7942,-79.481206,1,,0, ,,2,1
1672,1672,HILLMOUNT RD / MARKLAND ST,,,43.876124,-79.371399,1,,0, ,,1,1
1673,1673,GLEN SHIELDS AV / POINT O'WOODS DR,,,43.796178,-79.480754,1,,0, ,,2,1
1674,1674,MARKLAND ST / BARTLETT RD,,,43.87885,-79.37251,1,,0, ,,1,1
1677,1677,GLEN SHIELDS AV / CROOKED STICK RD,,,43.797755,-79.479099,1,,0, ,,1,1
1678,1678,MAJOR MACKENZIE DR / NICHOLS BLVD,,,43.885128,-79.370487,1,,0, ,,1,1
1679,1679,GLEN SHIELDS AV / BOYNE HIGHLANDS C,GLEN SHIELDS AVE & BOYNE HIGHLANDS CRT,,43.799023,-79.478221,1,,0, ,,1,1
1680,1680,MAJOR MACKENZIE DR / WOODBINE AV,,,43.88568,-79.36778,1,,0, ,,1,1
1681,1681,GLEN SHIELDS AV / MARITA PL,,,43.800613,-79.476744,1,,0, ,,1,1
1682,1682,MAJOR MACKENZIE DR / LESLIE ST,,,43.880703,-79.391179,1,,0, ,,1,1
1683,1683,DUFFERIN ST / GLEN SHIELDS AV,,,43.801302,-79.473661,1,,0, ,,1,1
1685,1685,DUFFERIN ST STOP # 1685,,,43.798762,-79.47302,1,,0, ,,1,1
1686,1686,MAJOR MACKENZIE DR / FORESTWOOD ST,,,43.879422,-79.395855,1,,0, ,,1,1
1688,1688,MAJOR MACKENZIE DR / SHIRLEY DR,,,43.8785,-79.400067,1,,0, ,,1,1
1691,1691,MAJOR MACKENZIE DR / FRANK ENDEAN R,MAJOR MACKENZIE DR & FRANK ENDEAN RD,,43.877191,-79.406142,1,,0, ,,2,1
1693,1693,MAJOR MACKENZIE DR / OLD MARKHAM RD,,,43.876305,-79.411998,1,,0, ,,1,1
1695,1695,MAJOR MACKENZIE DR / BAYVIEW AV,,,43.876239,-79.415047,1,,0, ,,1,1
1697,1697,MAJOR MACKENZIE DR STOP # 1697,MAJOR MACKENZIE DR & COLBORNE AV,,43.875857,-79.416725,1,,0, ,,1,1
1699,1699,MAJOR MACKENZIE DR / SUSSEX AV,,,43.874811,-79.421483,1,,0, ,,1,1
1701,1701,MAJOR MACKENZIE DR / NEWKIRK RD,,,43.874038,-79.425135,1,,0, ,,1,1
1703,1703,MAJOR MACKENZIE DR / CEDAR AV,,,43.873424,-79.427908,1,,0, ,,1,1
1705,1705,MAJOR MACKENZIE DR / PUGSLEY AV,,,43.872892,-79.430266,1,,0, ,,1,1
1706,1706,SENECA COLLEGE STOP # 1706,SENECA COLLEGE & KING CAMPUS,,43.954713,-79.519164,1,,0, ,,1,1
1707,1707,MAJOR MACKENZIE DR / BAKER AV,,,43.872082,-79.433853,1,,0, ,,1,1
1709,1709,MAJOR MACKENZIE DR / ARNOLD CRES,,,43.869902,-79.44391,1,,0, ,,2,1
1710,1710,15TH SDRD / DUFFERIN ST,,,43.952388,-79.507987,1,,0, ,,2,1
1711,1711,MAJOR MACKENZIE DR / TRENCH ST,,,43.868924,-79.448474,1,,0, ,,1,1
1712,1712,15TH SDRD / BATHURST ST,,,43.95734,-79.485864,1,,0, ,,1,1
1713,1713,MAJOR MACKENZIE DR STOP # 1713,,,43.867734,-79.453965,1,,0, ,,1,1
1715,1715,MAJOR MACKENZIE DR / HEADDON GATE,,,43.867029,-79.457412,1,,0, ,,1,1
1717,1717,MAJOR MACKENZIE DR / BATHURST ST,,,43.866089,-79.462371,1,,0, ,,1,1
1719,1719,MAJOR MACKENZIE DR / DUFFERIN ST,,,43.861504,-79.48681,1,,0, ,,1,1
1721,1721,MAJOR MACKENZIE DR / HILL ST,,,43.857747,-79.502577,1,,0, ,,1,1
1723,1723,MAJOR MACKENZIE DR STOP # 1723,,,43.856407,-79.508495,1,,0, ,,1,1
1725,1725,MAJOR MACKENZIE DR / KEELE ST,,,43.855122,-79.511917,1,,0, ,,1,1
1727,1727,MAJOR MACKENZIE DR STOP # 1727,,,43.854123,-79.516385,1,,0, ,,1,1
1729,1729,MAJOR MACKENZIE DR / KILLIAN RD,,,43.853344,-79.520313,1,,0, ,,1,1
1731,1731,MAJOR MACKENZIE DR / MCNAUGHTON RD,,,43.85207,-79.526866,1,,0, ,,1,1
1735,1735,MAJOR MACKENZIE DR STOP # 1735,,,43.850369,-79.534377,1,,0, ,,1,1
1736,1736,YONGE ST / EDWARD ST,,,43.986377,-79.464179,1,,0, ,,1,1
1737,1737,MAJOR MACKENZIE DR / JANE ST,,,43.849826,-79.536186,1,,0, ,,1,1
1740,1740,YONGE ST / KENNEDY ST,,,43.994063,-79.466121,1,,0, ,,1,1
1744,1744,YONGE ST / CHURCH ST,,,43.996631,-79.466738,1,,0, ,,1,1
1761,1761,YONGE ST / MURRAY DR,,,43.986869,-79.464662,1,,0, ,,1,1
1929,1929,LESLIE ST / 14TH LANE,,,43.829082,-79.372032,1,,0, ,,1,1
1930,1930,LESLIE ST / TANGLEWOOD TRL,,,43.826734,-79.371314,1,,0, ,,1,1
1931,1931,DON MILLS RD / JOHN ST,,,43.82163,-79.369937,1,,0, ,,1,1
1932,1932,DON MILLS RD / SIMONSTON BLVD,,,43.819227,-79.367274,1,,0, ,,1,1
1936,1936,DON MILLS RD / STEELES AV,,,43.81163,-79.360853,1,,0, ,,1,1
1937,1937,DON MILLS RD / SIMONSTON BLVD,,,43.813989,-79.361859,1,,0, ,,1,1
1939,1939,DON MILLS RD / JOHN ST,,,43.822068,-79.369799,1,,0, ,,1,1
1940,1940,LESLIE ST / LYNDHURST DR,,,43.826409,-79.370925,1,,0, ,,1,1
1941,1941,LESLIE ST / 14TH LANE,,,43.829491,-79.371997,1,,0, ,,1,1
1958,1958,BATHURST ST / VALLEY VISTA DR,,,43.861909,-79.46208,1,,0, ,,1,1
1960,1960,BATHURST ST / LEBOVIC CAMPUS DR,,,43.855136,-79.460523,1,,0, ,,1,1
1961,1961,BATHURST ST / MARC SANTI BLVD,,,43.852019,-79.45981,1,,0, ,,1,1
1962,1962,BATHURST ST / RUTHERFORD RD,,,43.847892,-79.458877,1,,0, ,,1,1
1963,1963,BATHURST ST / MITCHELL REAMAN GT,,,43.845179,-79.458188,1,,0, ,,1,1
1964,1964,BATHURST ST / TEEFY AV,,,43.843586,-79.457891,1,,0, ,,1,1
1965,1965,BATHURST ST / NER ISRAEL DR,,,43.841016,-79.457311,1,,0, ,,2,1
1966,1966,BATHURST ST / AUTUMN HILL BLVD,,,43.83751,-79.45659,1,,0, ,,2,1
1967,1967,BATHURST ST / SUMMERIDGE DR,,,43.834475,-79.45568,1,,0, ,,1,1
1970,1970,EAGLE ST / JOHN BOWSER CRES,,,44.051922,-79.484547,1,,0, ,,1,1
1973,1973,YONGE ST / LONDON RD,,,44.064102,-79.48247,1,,0, ,,1,1
1974,1974,YONGE ST / BRISTOL RD,,,44.067795,-79.483384,1,,0, ,,1,1
1978,1978,YONGE ST STOP # 1978,,,44.066601,-79.483455,1,,0, ,,2,1
1979,1979,YONGE ST / BONSHAW AV,,,44.064597,-79.482941,1,,0, ,,1,1
1980,1980,YONGE ST / DAWSON MANOR BLVD,,,44.061349,-79.482177,1,,0, ,,1,1
1981,1981,DAVIS DR STOP # 1981,,,44.054279,-79.483716,1,,0, ,,1,1
1985,1985,YONGE ST / GLADMAN AV,,,44.049546,-79.479298,1,,0, ,,1,1
1986,1986,YONGE ST STOP # 1986,,,44.047833,-79.478882,1,,0, ,,1,1
1988,1988,YONGE ST / CLEARMEADOW BLVD,,,44.040394,-79.477146,1,,0, ,,1,1
2086,2086,EAGLE ST / MCCAFFREY RD,,,44.044815,-79.482157,1,,0, ,,1,1
2087,2087,EAGLE ST / PEEVERS CRES,,,44.046441,-79.484305,1,,0, ,,1,1
2088,2088,EAGLE ST / GLENWAY CIR,,,44.048227,-79.484627,1,,0, ,,1,1
2089,2089,EAGLE ST / MILLARD AV,,,44.049968,-79.484517,1,,0, ,,1,1
2117,2117,YORKLAND ST / BERNARD AV,,,43.895565,-79.439173,1,,0, ,,1,1
2146,2146,YONGE ST / BAIF BLVD,,,43.858768,-79.434583,1,,0, ,,1,1
2310,2310,YONGE ST STOP # 2310,,,43.836591,-79.429351,1,,0, ,,1,1
2311,2311,YONGE ST / LANGSTAFF RD,,,43.832738,-79.428506,1,,0, ,,1,1
2312,2312,YONGE ST / LONGBRIDGE RD,,,43.83072,-79.42804,1,,0, ,,1,1
2313,2313,YONGE ST / BUNKER RD,,,43.828851,-79.427575,1,,0, ,,2,1
2314,2314,YONGE ST / UPLANDS AV,,,43.826823,-79.427091,1,,0, ,,1,1
2315,2315,YONGE ST / THORNHILL AV,,,43.825278,-79.42672,1,,0, ,,1,1
2316,2316,YONGE ST / JOHN ST,,,43.814736,-79.424259,1,,0, ,,1,1
2317,2317,YONGE ST / ARNOLD AV,,,43.811126,-79.423491,1,,0, ,,1,1
2318,2318,YONGE ST / GLEN CAMERON RD,,,43.805597,-79.422211,1,,0, ,,1,1
2319,2319,YONGE ST / DONCASTER AV,,,43.802036,-79.4213,1,,0, ,,1,1
2330,2330,FINCH GO BUS TERMINAL PLATFORM 10,5697 YONGE ST FINCH GO BUS TERMINAL & PLATFORM 10,10,43.78234,-79.415299,1,,0,20,,1,1
2331,2331,FINCH GO BUS TERMINAL PLATFORM 11,5697 YONGE ST FINCH GO BUS TERMINAL & PLATFORM 11,11,43.782425,-79.415512,1,,0,20,,1,1
2332,2332,FINCH GO BUS TERMINAL PLATFORM 12,5697 YONGE ST FINCH GO BUS TERMINAL & PLATFORM 12,12,43.782573,-79.415666,1,,0,20,,1,1
2333,2333,FINCH GO BUS TERMINAL PLATFORM 14,5697 YONGE ST FINCH GO BUS TERMINAL & PLATFORM 14,14,43.782503,-79.415305,1,,0,20,,1,1
2334,2334,FINCH GO BUS TERMINAL PLATFORM 15,5697 YONGE ST FINCH GO BUS TERMINAL & PLATFORM 15,15,43.782516,-79.414881,1,,0,20,,1,1
2335,2335,FINCH GO BUS TERMINAL PLATFORM 16,5697 YONGE ST FINCH GO BUS TERMINAL & PLATFORM 16,16,43.782515,-79.414632,1,,0,20,,1,1
2338,2338,YONGE ST / CUMMER AV,,,43.787532,-79.417335,1,,0, ,,1,1
2339,2339,YONGE ST / OTONABEE AV,,,43.794272,-79.418994,1,,0, ,,1,1
2340,2340,YONGE ST / DONCASTER AV,,,43.801684,-79.420878,1,,0, ,,1,1
2341,2341,YONGE ST / GLEN CAMERON RD,,,43.805238,-79.421756,1,,0, ,,1,1
2342,2342,YONGE ST / ELGIN ST,,,43.810912,-79.423127,1,,0, ,,1,1
2343,2343,YONGE ST / JOHN ST,,,43.814029,-79.42381,1,,0, ,,1,1
2344,2344,YONGE ST / BAY THORN DR,,,43.824924,-79.426318,1,,0, ,,1,1
2345,2345,YONGE ST / UPLANDS AV,,,43.827024,-79.426813,1,,0, ,,2,1
2346,2346,YONGE ST / BUNKER RD,,,43.828884,-79.427303,1,,0, ,,2,1
2347,2347,YONGE ST / LONGBRIDGE RD,,,43.830103,-79.427555,1,,0, ,,1,1
2348,2348,YONGE ST / LANGSTAFF RD,,,43.832324,-79.428022,1,,0, ,,1,1
2349,2349,YONGE ST STOP # 2349,,,43.838465,-79.429307,1,,0, ,,1,1
2351,2351,YONGE ST / HIGH TECH RD,,,43.841201,-79.429968,1,,0, ,,1,1
2470,2470,YONGE ST / BERESFORD DR,,,43.844229,-79.430649,1,,0, ,,1,1
2471,2471,YONGE ST / NORTHERN HEIGHTS DR,,,43.848956,-79.43183,1,,0, ,,1,1
2472,2472,YONGE ST / SPRUCE AV,,,43.851295,-79.432374,1,,0, ,,1,1
2474,2474,YONGE ST STOP # 2474,,,43.855265,-79.43334,1,,0, ,,1,1
2476,2476,YONGE ST / CLARISSA DR,,,43.861968,-79.434891,1,,0, ,,1,1
2477,2477,YONGE ST / MAY AV,,,43.863709,-79.435279,1,,0, ,,1,1
2478,2478,YONGE ST / HARDING BLVD,,,43.866482,-79.435931,1,,0, ,,1,1
2479,2479,YONGE ST / ELMWOOD AV,,,43.869222,-79.436556,1,,0, ,,2,1
2481,2481,YONGE ST / LORNE AV,,,43.874235,-79.437717,1,,0, ,,1,1
2482,2482,YONGE ST / CENTRE ST,,,43.876169,-79.438224,1,,0, ,,1,1
2483,2483,YONGE ST / DUNLOP ST,,,43.878261,-79.438754,1,,0, ,,1,1
2485,2485,YONGE ST / LEVENDALE RD,,,43.882565,-79.439731,1,,0, ,,1,1
2486,2486,YONGE ST / TRAYBORN DR,,,43.884941,-79.440261,1,,0, ,,1,1
2487,2487,YONGE ST / INDUSTRIAL RD,,,43.886598,-79.440604,1,,0, ,,1,1
2489,2489,YONGE ST / SILVERWOOD AV,,,43.89848,-79.443299,1,,0, ,,1,1
2490,2490,YONGE ST STOP # 2490,,,43.901573,-79.444081,1,,0, ,,1,1
2491,2491,YONGE ST / DEVONSLEIGH BLVD,,,43.904543,-79.444742,1,,0, ,,1,1
2493,2493,YONGE ST / JEFFERSON FOREST DR,,,43.913846,-79.447089,1,,0, ,,2,1
2494,2494,YONGE ST / TOWNWOOD DR,,,43.916541,-79.447782,1,,0, ,,2,1
2498,2498,YONGE ST / OLD COLONY RD,,,43.939615,-79.45338,1,,0, ,,1,1
2499,2499,YONGE ST / LAKE AV,,,43.941634,-79.453832,1,,0, ,,1,1
2501,2501,YONGE ST / ASHFIELD DR,,,43.948224,-79.455386,1,,0, ,,1,1
2502,2502,YONGE ST / ELM GROVE AV,,,43.950171,-79.455859,1,,0, ,,1,1
2504,2504,YONGE ST / WORTHINGTON AV,,,43.954832,-79.456841,1,,0, ,,1,1
2505,2505,YONGE ST / COON'S RD,,,43.958441,-79.457668,1,,0, ,,2,1
2507,2507,YONGE ST STOP # 2507,,,43.965164,-79.459201,1,,0, ,,2,1
2508,2508,YONGE ST / GILBERT DR,,,43.977299,-79.462081,1,,0, ,,2,1
2510,2510,YONGE ST / MARK ST,,,44.004002,-79.468538,1,,0, ,,2,1
2511,2511,YONGE ST / VALHALLA CRT,,,44.00628,-79.469037,1,,0, ,,1,1
2512,2512,YONGE ST STOP # 2512,,,44.01389,-79.47081,1,,0, ,,1,1
2513,2513,YONGE ST / ST. JOHN'S SDRD,,,44.019356,-79.472084,1,,0, ,,1,1
2515,2515,YONGE ST / SAVAGE RD,,,44.032599,-79.475045,1,,0, ,,1,1
2518,2518,YONGE ST STOP # 2518,,,44.05851,-79.48104,1,,0, ,,2,1
2519,2519,YONGE ST / KINGSTON RD,,,44.060872,-79.481709,1,,0, ,,1,1
2582,2582,YONGE ST STOP # 2582,,,44.071102,-79.484559,1,,0, ,,1,1
2600,2600,DAVIS DR STOP # 2600,,,44.054155,-79.483007,1,,0, ,,1,1
2616,2616,YONGE ST / MILLARD AV,,,44.051177,-79.479677,1,,0, ,,1,1
2617,2617,YONGE ST / SAWMILL VALLEY DR,,,44.033086,-79.475459,1,,0, ,,1,1
2619,2619,YONGE ST / ST. JOHN'S SDRD,,,44.01845,-79.472208,1,,0, ,,1,1
2620,2620,YONGE ST STOP # 2620,,,44.013564,-79.471047,1,,0, ,,1,1
2659,2659,YONGE ST / COON'S RD,,,43.959468,-79.458209,1,,0, ,,1,1
2660,2660,YONGE ST / BLACKFOREST DR,,,43.955254,-79.457341,1,,0, ,,1,1
2662,2662,YONGE ST / ELM GROVE AV,,,43.950338,-79.456186,1,,0, ,,1,1
2663,2663,YONGE ST / MAPLE GROVE AV,,,43.948727,-79.455809,1,,0, ,,1,1
2664,2664,YONGE ST / AUBREY AV,,,43.946664,-79.45532,1,,0, ,,1,1
2666,2666,YONGE ST / BOND CRES,,,43.942266,-79.454291,1,,0, ,,1,1
2667,2667,YONGE ST / ESTATE GARDEN DR,,,43.940082,-79.453825,1,,0, ,,1,1
2668,2668,YONGE ST / STOUFFVILLE RD,,,43.926214,-79.450616,1,,0, ,,2,1
2670,2670,YONGE ST / TOWNWOOD DR,,,43.916596,-79.448117,1,,0, ,,1,1
2671,2671,YONGE ST / TOWER HILL RD,,,43.914257,-79.447534,1,,0, ,,1,1
2672,2672,YONGE ST / OXFORD ST,,,43.886954,-79.441063,1,,0, ,,1,1
2696,2696,SHAFTSBURY AV / BATHURST ST,,,43.894405,-79.468936,1,,0, ,,1,1
2698,2698,BATHURST ST / TESTON RD,,,43.884224,-79.467549,1,,0, ,,1,1
2699,2699,BATHURST ST / LADY DELORES AV,,,43.881822,-79.466977,1,,0, ,,1,1
2700,2700,BATHURST ST / LADY NADIA DR,,,43.878471,-79.466163,1,,0, ,,1,1
2701,2701,BATHURST ST / QUEEN FILOMENA AV,,,43.873505,-79.464792,1,,0, ,,1,1
2760,2760,BATHURST ST / REGENT ST,,,43.877933,-79.465698,1,,0, ,,2,1
2761,2761,BATHURST ST / OXFORD ST,,,43.881353,-79.466533,1,,0, ,,1,1
2762,2762,BATHURST ST / ELGIN MILLS RD,,,43.883944,-79.467146,1,,0, ,,1,1
2763,2763,BATHURST ST / CANYON HILL AV,,,43.888451,-79.468179,1,,0, ,,1,1
2764,2764,BATHURST ST / SHAFTSBURY AV,,,43.893874,-79.469466,1,,0, ,,1,1
2774,2774,TRENCH ST / MAJOR MACKENZIE DR,,,43.86894,-79.44905,1,,0, ,,1,1
2775,2775,HARDING BLVD / LILLEY CRT,HARDING BLVD W & LILLEY CRT,,43.867894,-79.448577,1,,0, ,,1,1
2776,2776,HARDING BLVD / KERSEY CRES,,,43.867271,-79.445925,1,,0, ,,1,1
2815,2815,HARDING BLVD / MAJOR MACKENZIE DR,,,43.868421,-79.448628,1,,0, ,,1,1
2816,2816,TRENCH ST / MAJOR MACKENZIE DR,,,43.869988,-79.449247,1,,0, ,,1,1
2819,2819,BAYVIEW AV / ARDWOLD GATE,,,43.862578,-79.41203,1,,0, ,,1,1
2820,2820,BAYVIEW AV / HILLSVIEW DR,,,43.866798,-79.413098,1,,0, ,,1,1
2821,2821,BAYVIEW AV / WELDRICK RD,,,43.86868,-79.413516,1,,0, ,,2,1
2822,2822,BAYVIEW AV / PALMER AV,,,43.872027,-79.414324,1,,0, ,,1,1
2823,2823,BAYVIEW AV / MAJOR MACKENZIE DR,,,43.875816,-79.41524,1,,0, ,,2,1
2824,2824,BAYVIEW AV / MARAMAK RD,,,43.878074,-79.415764,1,,0, ,,1,1
2825,2825,BAYVIEW AV / FARMSTEAD RD,,,43.87967,-79.416166,1,,0, ,,1,1
2826,2826,BAYVIEW AV / CARTIER CRES,,,43.882699,-79.416943,1,,0, ,,1,1
2827,2827,BAYVIEW AV / REDSTONE RD,,,43.885009,-79.417503,1,,0, ,,1,1
2828,2828,BAYVIEW AV / FRANK ENDEAN RD,,,43.888158,-79.418288,1,,0, ,,1,1
2829,2829,BAYVIEW AV / TAYLOR MILLS DR N,,,43.890745,-79.418977,1,,0, ,,1,1
2830,2830,BAYVIEW AV / ELGIN MILLS RD,,,43.893312,-79.419582,1,,0, ,,1,1
2831,2831,BAYVIEW AV STOP # 2831,,,43.896509,-79.420348,1,,0, ,,1,1
2836,2836,BAYVIEW AV / WOODRIVER ST,,,43.900484,-79.421569,1,,0, ,,1,1
2837,2837,WOODRIVER ST / ROSETREE ST,,,43.900157,-79.422094,1,,0, ,,1,1
2844,2844,WOODRIVER ST / BILBERMAR DR,,,43.899903,-79.426044,1,,0, ,,2,1
2845,2845,WOODRIVER ST / BILBERMAR DR,,,43.901717,-79.426399,1,,0, ,,1,1
2846,2846,WOODRIVER ST / SUBRISCO AV,,,43.903032,-79.42626,1,,0, ,,2,1
2847,2847,SUBRISCO AV / BAYVIEW AV,,,43.903991,-79.422683,1,,0, ,,1,1
2848,2848,BAYVIEW AV / MEGARRY CRT,,,43.89854,-79.42106,1,,0, ,,1,1
2849,2849,BAYVIEW AV STOP # 2849,10919 BAYVIEW AVE,,43.896268,-79.420567,1,,0, ,,1,1
2850,2850,BAYVIEW AV / ELGIN MILLS RD,,,43.893855,-79.419986,1,,0, ,,1,1
2851,2851,BAYVIEW AV / JUDLEA CRT,,,43.892149,-79.419551,1,,0, ,,1,1
2852,2852,TAYLOR MILLS DR / ALVERNA RD,,,43.88695,-79.420497,1,,0, ,,2,1
2853,2853,TAYLOR MILLS DR / NEAL DR,,,43.886311,-79.42345,1,,0, ,,1,1
2854,2854,TAYLOR MILLS RD / TAYLOR MILLS RD,TAYLOR MILLS DR & TAYLOR MILLS DR,,43.885673,-79.426417,1,,0, ,,1,1
2855,2855,TAYLOR MILLS DR / PERKINS RD,,,43.88748,-79.427523,1,,0, ,,1,1
2856,2856,TAYLOR MILLS DR / KERSWELL DR,,,43.889659,-79.427498,1,,0, ,,1,1
2857,2857,TAYLOR MILLS DR / NEAL DR,,,43.890934,-79.424251,1,,0, ,,1,1
2859,2859,BAYVIEW AV STOP # 2859,,,43.889982,-79.419037,1,,0, ,,1,1
2860,2860,BAYVIEW AV / TAYLOR MILLS DR S,,,43.887486,-79.4184,1,,0, ,,1,1
2861,2861,BAYVIEW AV / CROSBY AV,,,43.885392,-79.417865,1,,0, ,,1,1
2862,2862,BAYVIEW AV / CARTIER CRES,,,43.882953,-79.417259,1,,0, ,,1,1
2863,2863,BAYVIEW AV / CENTRE ST,,,43.880167,-79.416569,1,,0, ,,1,1
2864,2864,BAYVIEW AV / MARAMAK RD,,,43.877896,-79.416026,1,,0, ,,1,1
2865,2865,BAYVIEW AV / MAJOR MACKENZIE DR,,,43.875413,-79.415424,1,,0, ,,1,1
2866,2866,BAYVIEW AV / PALMER AV,,,43.872415,-79.414715,1,,0, ,,1,1
2867,2867,BAYVIEW AV / WELDRICK RD,,,43.869023,-79.413927,1,,0, ,,1,1
2868,2868,BAYVIEW AV / HILLSVIEW DR,,,43.867023,-79.413427,1,,0, ,,1,1
2869,2869,BAYVIEW AV / ARDWOLD GATE,,,43.862989,-79.412405,1,,0, ,,1,1
2870,2870,BAYVIEW AV / FERN AV,,,43.861189,-79.411969,1,,0, ,,1,1
2871,2871,BAYVIEW AV / 16TH AV,,,43.858141,-79.411239,1,,0, ,,1,1
2872,2872,BAYVIEW AV / DUNCAN RD,,,43.856002,-79.410691,1,,0, ,,1,1
2873,2873,BAYVIEW AV STOP # 2873,,,43.853831,-79.410168,1,,0, ,,1,1
2874,2874,BAYVIEW AV / SPRINGBROOK DR,,,43.852127,-79.409795,1,,0, ,,2,1
2875,2875,BAYVIEW AV / BANTRY AV,,,43.84832,-79.4089,1,,0, ,,2,1
2876,2876,BAYVIEW AV / HIGH TECH RD,,,43.845365,-79.408127,1,,0, ,,1,1
2877,2877,BAYVIEW AV / CRESWICK RD,,,43.84223,-79.407322,1,,0, ,,1,1
2878,2878,BAYVIEW AV STOP # 2878,,,43.839751,-79.406651,1,,0, ,,1,1
2879,2879,BAYVIEW AV / LANGSTAFF RD,,,43.834918,-79.405387,1,,0, ,,1,1
2880,2880,BAYVIEW AV / ROMFIELD CIRCT,,,43.832438,-79.404746,1,,0, ,,1,1
2881,2881,BAYVIEW AV / DUNSINANE DR,,,43.830088,-79.404126,1,,0, ,,1,1
2882,2882,BAYVIEW AV / ROMFIELD CIRCT,,,43.827828,-79.403553,1,,0, ,,1,1
2883,2883,BAYVIEW AV / ROYAL ORCHARD BLVD,,,43.821857,-79.402064,1,,0, ,,1,1
2884,2884,BAYVIEW AV STOP # 2884,,,43.819937,-79.401553,1,,0, ,,1,1
2885,2885,BAYVIEW AV / JOHN ST,,,43.81825,-79.401208,1,,0, ,,2,1
2886,2886,BAYVIEW AV / THORNLEA RD,,,43.81622,-79.400684,1,,0, ,,1,1
2887,2887,BAYVIEW AV / HUNT CLUB CRT,,,43.81278,-79.399895,1,,0, ,,1,1
2888,2888,BAYVIEW AV / PROCTOR AV,,,43.809846,-79.399214,1,,0, ,,1,1
2889,2889,BAYVIEW AV / STEELES AV,,,43.803491,-79.396684,1,,0, ,,1,1
2890,2890,BAYVIEW AV / STEELES AV,,,43.804329,-79.397139,1,,0, ,,1,1
2891,2891,BAYVIEW AV / DONCREST DR,,,43.810143,-79.398953,1,,0, ,,1,1
2892,2892,BAYVIEW AV / LAURELEAF RD,,,43.81249,-79.399528,1,,0, ,,1,1
2893,2893,BAYVIEW AV / HARRIS WAY,,,43.816378,-79.400469,1,,0, ,,1,1
2894,2894,BAYVIEW AV / JOHN ST,,,43.818961,-79.401031,1,,0, ,,1,1
2895,2895,BAYVIEW AV / GREEN LANE,,,43.821607,-79.401617,1,,0, ,,1,1
2896,2896,BAYVIEW AV / WILLOWBROOK RD,,,43.827992,-79.403256,1,,0, ,,1,1
2897,2897,BAYVIEW AV / DUNSINANE DR,,,43.829811,-79.403674,1,,0, ,,1,1
2898,2898,BAYVIEW AV / SYCAMORE DR,,,43.832527,-79.404444,1,,0, ,,1,1
2899,2899,BAYVIEW AV / LANGSTAFF RD,,,43.834622,-79.404949,1,,0, ,,1,1
2900,2900,BAYVIEW AV STOP # 2900,,,43.840517,-79.406529,1,,0, ,,1,1
2901,2901,BAYVIEW AV / CRESWICK RD,,,43.842388,-79.407004,1,,0, ,,1,1
2902,2902,BAYVIEW AV / HIGH TECH RD,,,43.844919,-79.407656,1,,0, ,,1,1
2903,2903,BAYVIEW AV / BRIGGS AV,,,43.847824,-79.40843,1,,0, ,,1,1
2904,2904,BAYVIEW AV / BLACKMORE AV,,,43.851765,-79.409373,1,,0, ,,1,1
2905,2905,BAYVIEW AV STOP # 2905,,,43.854023,-79.409951,1,,0, ,,2,1
2906,2906,BAYVIEW AV / DUNCAN RD,,,43.856027,-79.410517,1,,0, ,,1,1
2907,2907,BAYVIEW AV / 16TH AV,,,43.857606,-79.410794,1,,0, ,,1,1
2929,2929,CRANSTON PARK AV / CUNNINGHAM DR,,,43.861794,-79.52569,1,,0, ,,2,1
2930,2930,MELVILLE AV / MAPLE MEADOWS LANE,,,43.865214,-79.530141,1,,0, ,,2,1
2931,2931,MELVILLE AV / BRANDON GATE DR,,,43.863432,-79.534811,1,,0, ,,1,1
2932,2932,JANE ST / TIERRA AV,,,43.857304,-79.538538,1,,0, ,,1,1
2933,2933,JANE ST / GRAND VALLEY BLVD,,,43.853789,-79.537758,1,,0, ,,1,1
2934,2934,MAJOR MACKENZIE DR STOP # 2934,,,43.850013,-79.534676,1,,0, ,,1,1
2935,2935,MAJOR MACKENZIE DR / MELVILLE AV,,,43.85072,-79.532337,1,,0, ,,1,1
2937,2937,MAJOR MACKENZIE DR / MELVILLE AV,,,43.851079,-79.531817,1,,0, ,,1,1
2938,2938,JANE ST / ROSEHEATH DR,,,43.853307,-79.537308,1,,0, ,,1,1
2939,2939,JANE ST / CUNNINGHAM DR,,,43.856894,-79.538119,1,,0, ,,1,1
2940,2940,JANE ST / BRANDON GATE DR,,,43.862294,-79.53929,1,,0, ,,1,1
2942,2942,MELVILLE AV / CRANSTON PARK AV,,,43.865088,-79.53004,1,,0, ,,1,1
2945,2945,MAJOR MACKENZIE DR / AVRO RD,,,43.851972,-79.526266,1,,0, ,,1,1
2946,2946,MAJOR MACKENZIE DR / NETHERFORD RD,,,43.853061,-79.520817,1,,0, ,,1,1
2947,2947,MAJOR MACKENZIE DR / GRAM ST,,,43.853615,-79.518076,1,,0, ,,1,1
2948,2948,MAJOR MACKENZIE DR / KEELE ST,,,43.855002,-79.511638,1,,0, ,,1,1
2949,2949,MAJOR MACKENZIE DR STOP # 2949,,,43.856212,-79.508724,1,,0, ,,1,1
2950,2950,MAJOR MACKENZIE DR / HILL ST,,,43.857535,-79.502883,1,,0, ,,1,1
2951,2951,MAJOR MACKENZIE DR / DUFFERIN ST,,,43.861009,-79.487967,1,,0, ,,1,1
2952,2952,MAJOR MACKENZIE DR / BATHURST ST,,,43.865603,-79.463954,1,,0, ,,1,1
2953,2953,MAJOR MACKENZIE DR / DON HEAD VILLAGE,MAJOR MACKENZIE DR & DON HEAD VILLAGE BLVD,,43.866675,-79.457965,1,,0, ,,1,1
2960,2960,MAJOR MACKENZIE DR STOP # 2960,,,43.867643,-79.453622,1,,0, ,,1,1
2961,2961,MAJOR MACKENZIE DR / HARDING BLVD,,,43.868574,-79.449096,1,,0, ,,1,1
2962,2962,MAJOR MACKENZIE DR / ARNOLD CRES,,,43.869707,-79.443744,1,,0, ,,1,1
2963,2963,MAJOR MACKENZIE DR / ATKINSON ST,,,43.870331,-79.440822,1,,0, ,,1,1
2964,2964,MAJOR MACKENZIE DR / YONGE ST,,,43.871055,-79.437609,1,,0, ,,1,1
2965,2965,MAJOR MACKENZIE DR / BAKER AV,,,43.87184,-79.434281,1,,0, ,,1,1
2966,2966,MAJOR MACKENZIE DR / PUGSLEY AV,,,43.872728,-79.430302,1,,0, ,,1,1
2968,2968,MAJOR MACKENZIE DR / ESSEX AV,,,43.8739,-79.42471,1,,0, ,,1,1
2969,2969,MAJOR MACKENZIE DR / SUSSEX AV,,,43.874668,-79.421289,1,,0, ,,1,1
2970,2970,MAJOR MACKENZIE DR / BAYVIEW AV,,,43.875861,-79.415815,1,,0, ,,1,1
2971,2971,MAJOR MACKENZIE DR / RIDGECREST RD,,,43.900614,-79.304959,1,,0, ,,1,1
2978,2978,MAJOR MACKENZIE DR / MCCOWAN RD,,,43.903353,-79.293526,1,,0, ,,1,1
3032,3032,RUTHERFORD RD / WESTON RD,,,43.826346,-79.555823,1,,0, ,,1,1
3034,3034,RUTHERFORD RD / ST. CLARE BLVD,,,43.824281,-79.567447,1,,0, ,,1,1
3035,3035,RUTHERFORD RD / VIA CAMPANILE,,,43.82264,-79.575635,1,,0, ,,1,1
3036,3036,RUTHERFORD RD / PINE VALLEY DR,,,43.821335,-79.58189,1,,0, ,,1,1
3037,3037,RUTHERFORD RD STOP # 3037,,,43.818276,-79.595246,1,,0, ,,1,1
3038,3038,RUTHERFORD RD / ISLINGTON AV,RUTHERFORD RD STOP # 3038 & ISLINGTON AVE,,43.817264,-79.598943,1,,0, ,,1,1
3039,3039,RUTHERFORD RD STOP # 3039,,,43.817917,-79.595808,1,,0, ,,1,1
3040,3040,RUTHERFORD RD / PINE VALLEY DR,,,43.821221,-79.581353,1,,0, ,,1,1
3041,3041,RUTHERFORD RD / BABAK BLVD,,,43.822241,-79.576334,1,,0, ,,1,1
3042,3042,RUTHERFORD RD / VELMAR DR,,,43.823841,-79.568376,1,,0, ,,1,1
3055,3055,RUTHERFORD RD / WESTON RD,,,43.826123,-79.5554,1,,0, ,,2,1
3057,3057,RUTHERFORD RD / JULLIARD DR,,,43.829826,-79.536258,1,,0, ,,1,1
3064,3064,RUTHERFORD RD / BATHURST ST,,,43.847478,-79.459176,1,,0, ,,2,1
3207,3207,HILLMOUNT RD / MARKLAND ST,,,43.880748,-79.374015,1,,0, ,,1,1
3208,3208,HILLMOUNT RD STOP # 3208,,,43.879721,-79.376179,1,,0, ,,1,1
3209,3209,HILLMOUNT RD STOP # 3209,,,43.875634,-79.374135,1,,0, ,,1,1
3210,3210,HILLMOUNT RD / MARKLAND ST,,,43.875854,-79.372265,1,,0, ,,2,1
3273,3273,BATHURST ST / STEELES AV,,,43.793017,-79.44571,1,,0, ,,1,1
3274,3274,BATHURST ST / TOWNSGATE DR,,,43.794066,-79.445951,1,,0, ,,1,1
3275,3275,BATHURST ST STOP # 3275,,,43.796784,-79.446676,1,,0, ,,1,1
3276,3276,BATHURST ST / CHABAD GATE,,,43.799275,-79.447251,1,,0, ,,1,1
3277,3277,BATHURST ST / CLARK AV,,,43.803249,-79.448198,1,,0, ,,2,1
3278,3278,BATHURST ST STOP # 3278,,,43.81265,-79.45019,1,,0, ,,1,1
3280,3280,BATHURST ST / FLAMINGO RD,,,43.822771,-79.452742,1,,0, ,,1,1
3281,3281,BATHURST ST / SUMMERIDGE DR,,,43.834045,-79.455218,1,,0, ,,1,1
3282,3282,BATHURST ST / AUTUMN HILL RD,BATHURST ST & AUTUMN HILL BLVD,,43.836976,-79.456035,1,,0, ,,2,1
3284,3284,BATHURST ST / TEEFY AV,,,43.843209,-79.457504,1,,0, ,,2,1
3285,3285,BATHURST ST / BIRCH AV,,,43.844992,-79.457913,1,,0, ,,2,1
3286,3286,BATHURST ST / CARRVILLE RD,,,43.847506,-79.458459,1,,0, ,,1,1
3287,3287,BATHURST ST / SHAW BLVD,,,43.851565,-79.459409,1,,0, ,,2,1
3289,3289,BATHURST ST / WELDRICK RD,,,43.854737,-79.460097,1,,0, ,,1,1
3290,3290,BATHURST ST / PEMBERTON RD,,,43.856893,-79.46062,1,,0, ,,1,1
3291,3291,BATHURST ST / MCCALLUM DR,,,43.861501,-79.461653,1,,0, ,,1,1
3292,3292,BATHURST ST / MAJOR MACKENZIE DR,,,43.865309,-79.46246,1,,0, ,,1,1
3293,3293,BATHURST ST / MILL ST,,,43.873016,-79.464272,1,,0, ,,1,1
3295,3295,BATHURST ST / GAMBLE RD,,,43.902252,-79.471589,1,,0, ,,1,1
3296,3296,BATHURST ST / KINGSHILL RD,,,43.931197,-79.479309,1,,0, ,,1,1
3297,3297,BATHURST ST / KING RD,,,43.938188,-79.481127,1,,0, ,,2,1
3298,3298,BATHURST ST / PUCCINI DR,,,43.941297,-79.481847,1,,0, ,,1,1
3299,3299,BATHURST ST / LAURIER AV,,,43.944245,-79.482606,1,,0, ,,1,1
3300,3300,BATHURST ST / LAURIER AV,,,43.944562,-79.482918,1,,0, ,,2,1
3301,3301,BATHURST ST / KING RD,,,43.939099,-79.481647,1,,0, ,,1,1
3303,3303,BATHURST ST / GAMBLE RD,,,43.902646,-79.472012,1,,0, ,,1,1
3305,3305,BATHURST ST / MAJOR MACKENZIE DR,,,43.866649,-79.463053,1,,0, ,,1,1
3306,3306,BATHURST ST / WORTH BLVD,,,43.822544,-79.453091,1,,0, ,,1,1
3307,3307,BATHURST ST / WESTMOUNT BLVD,,,43.820475,-79.452505,1,,0, ,,1,1
3309,3309,BATHURST ST / CENTRE ST,,,43.811349,-79.450243,1,,0, ,,1,1
3310,3310,BATHURST ST / EAST PROMENADE,,,43.807404,-79.449447,1,,0, ,,1,1
3312,3312,BATHURST ST / CLARK AV,,,43.80293,-79.448472,1,,0, ,,1,1
3313,3313,VAUGHAN MILLS TERMINAL PLATFORM 2,1 BASS PRO MILLS DR VAUGHAN MILLS TERMINAL & PLATFORM 2,2,43.827344,-79.533979,1,,0,19,,1,1
3314,3314,BATHURST ST / MILNER GATE,,,43.79966,-79.447654,1,,0, ,,1,1
3316,3316,BATHURST ST STOP # 3316,,,43.796732,-79.446891,1,,0, ,,1,1
3317,3317,VAUGHAN MILLS TERMINAL PLATFORM 4,1 BASS PRO MILLS DR VAUGHAN MILLS TERMINAL & PLATFORM 4,4,43.827187,-79.53437,1,,0,19,,1,1
3319,3319,VAUGHAN MILLS TERMINAL PLATFORM 6,1 BASS PRO MILLS DR VAUGHAN MILLS TERMINAL & PLATFORM 6,6,43.826885,-79.534094,1,,0,19,,1,1
3322,3322,ATKINSON AV / ROSEDALE HEIGHTS DR,,,43.817482,-79.45012,1,,0, ,,1,1
3323,3323,VAUGHAN MILLS TERMINAL PLATFORM 8,1 BASS PRO MILLS DR VAUGHAN MILLS TERMINAL & PLATFORM 8,8,43.827129,-79.53379,1,,0,19,,1,1
3324,3324,ATKINSON AV / DUNDURN CRES,,,43.818126,-79.446533,1,,0, ,,1,1
3326,3326,ATKINSON AV / DUNDURN CRES,,,43.817234,-79.44471,1,,0, ,,1,1
3328,3328,ATKINSON AV STOP # 3328,,,43.815744,-79.443736,1,,0, ,,1,1
3330,3330,ATKINSON AV / ROSEDALE HEIGHTS DR,,,43.813662,-79.443649,1,,0, ,,2,1
3334,3334,ATKINSON AV / CAMPBELL AV,,,43.81103,-79.44314,1,,0, ,,2,1
3336,3336,ATKINSON AV / RODEO DR,,,43.808763,-79.44251,1,,0, ,,2,1
3338,3338,ATKINSON AV / SPRING GATE BLVD,,,43.806406,-79.441628,1,,0, ,,1,1
3342,3342,ATKINSON AV / EDMUND SEAGER DR,,,43.813424,-79.443439,1,,0, ,,1,1
3344,3344,ATKINSON AV STOP # 3344,,,43.815277,-79.443515,1,,0, ,,1,1
3345,3345,ATKINSON AV / FLAMINGO RD,,,43.817619,-79.444961,1,,0, ,,1,1
3347,3347,ATKINSON AV / BATHURST ST,,,43.817412,-79.451178,1,,0, ,,1,1
3348,3348,NEW WESTMINSTER DR STOP # 3348,,,43.816829,-79.453808,1,,0, ,,1,1
3349,3349,ISLINGTON AV / SPRING BERRY GATE,,,43.830191,-79.61349,1,,0, ,,1,1
3350,3350,NEW WESTMINSTER DR / BEVERLEY GLEN,NEW WESTMINSTER DR & BEVERLEY GLEN BLVD,,43.814422,-79.456625,1,,0, ,,1,1
3352,3352,NEW WESTMINSTER DR / KATERINA AV,,,43.811805,-79.457502,1,,0, ,,1,1
3353,3353,ISLINGTON AV / SEVILLA BLVD,,,43.835803,-79.621002,1,,0, ,,2,1
3354,3354,NEW WESTMINSTER DR / CLARK AV,,,43.802277,-79.457845,1,,0, ,,1,1
3355,3355,ISLINGTON AV / RUSHWORTH CRES,,,43.839065,-79.623732,1,,0, ,,2,1
3356,3356,NEW WESTMINSTER DR / COULTERS MILL,NEW WESTMINSTER DR & COULTERS MILL GATE,,43.798247,-79.459539,1,,0, ,,1,1
3357,3357,ISLINGTON AV STOP # 3357,,,43.840671,-79.625045,1,,0, ,,2,1
3358,3358,NEW WESTMINSTER DR / JOSEPH AARON B,NEW WESTMINSTER DR & JOSEPH AARON BLVD,,43.796188,-79.459378,1,,0, ,,1,1
3359,3359,ISLINGTON AV / NASHVILLE RD,,,43.84417,-79.62841,1,,0, ,,1,1
3360,3360,NEW WESTMINSTER DR / CONLEY ST,,,43.79209,-79.458403,1,,0, ,,1,1
3361,3361,ISLINGTON AV / BELL CRT,,,43.846106,-79.632953,1,,0, ,,2,1
3362,3362,NEW WESTMINSTER DR / STEELES AV,,,43.790128,-79.457864,1,,0, ,,1,1
3363,3363,ISLINGTON AV / NASHVILLE RD,,,43.844324,-79.629056,1,,0, ,,1,1
3364,3364,NEW WESTMINSTER DR / CONLEY ST,,,43.791718,-79.458112,1,,0, ,,1,1
3365,3365,ISLINGTON AV STOP # 3365,,,43.840612,-79.625195,1,,0, ,,1,1
3366,3366,NEW WESTMINSTER DR / MULLEN DR,,,43.795762,-79.459076,1,,0, ,,1,1
3367,3367,ISLINGTON AV / RUSHWORTH CRES,,,43.838925,-79.62385,1,,0, ,,2,1
3368,3368,NEW WESTMINSTER DR / EDGECROFT TRL,,,43.798817,-79.459028,1,,0, ,,2,1
3369,3369,ISLINGTON AV / BINDERTWINE BLVD,,,43.836305,-79.621639,1,,0, ,,2,1
3370,3370,NEW WESTMINSTER DR / CLARK AV,,,43.801747,-79.457744,1,,0, ,,1,1
3371,3371,ISLINGTON AV / SUNSET RIDGE,,,43.830359,-79.614386,1,,0, ,,1,1
3372,3372,NEW WESTMINSTER DR / BROWNRIDGE DR,,,43.805895,-79.456021,1,,0, ,,1,1
3373,3373,ISLINGTON AV / RUTHERFORD RD,,,43.817489,-79.601177,1,,0, ,,1,1
3374,3374,NEW WESTMINSTER DR / CENTRE ST,,,43.809215,-79.457127,1,,0, ,,1,1
3375,3375,RUTHERFORD RD / ISLINGTON AV,,,43.816775,-79.601983,1,,0, ,,1,1
3376,3376,NEW WESTMINSTER DR / KATERINA AV,,,43.811477,-79.457386,1,,0, ,,1,1
3377,3377,RUTHERFORD RD / CLARENCE ST,,,43.81591,-79.605667,1,,0, ,,1,1
3378,3378,NEW WESTMINSTER DR / BEVERLEY GLEN,NEW WESTMINSTER DR & BEVERLEY GLEN BLVD,,43.813972,-79.456574,1,,0, ,,1,1
3379,3379,RUTHERFORD RD / FOREST FOUNTAIN DR,,,43.814749,-79.610958,1,,0, ,,1,1
3380,3380,NEW WESTMINSTER DR STOP # 3380,,,43.816072,-79.455061,1,,0, ,,1,1
3381,3381,NAPA VALLEY AV / RUTHERFORD RD,,,43.813884,-79.616569,1,,0, ,,1,1
3382,3382,NEW WESTMINSTER DR / BATHURST ST,,,43.817083,-79.452016,1,,0, ,,1,1
3383,3383,NAPA VALLEY AV / MONTE CARLO DR,,,43.814864,-79.618076,1,,0, ,,2,1
3384,3384,ROYAL ORCHARD BLVD / INVERLOCHY BLV,ROYAL ORCHARD BLVD & INVERLOCHY BLVD,,43.822985,-79.423779,1,,0, ,,1,1
3385,3385,NAPA VALLEY AV / ROTA CRES,,,43.814527,-79.620676,1,,0, ,,2,1
3386,3386,ROYAL ORCHARD BLVD / WILD CHERRY LA,ROYAL ORCHARD BLVD & WILD CHERRY LANE,,43.823082,-79.420963,1,,0, ,,2,1
3387,3387,NAPA VALLEY AV / MONTEBELLO AV,,,43.815483,-79.623266,1,,0, ,,1,1
3388,3388,ROYAL ORCHARD BLVD / BAY THORN DR,,,43.823978,-79.417155,1,,0, ,,2,1
3389,3389,ROYAL ORCHARD BLVD / KIRK DR,,,43.82438,-79.412835,1,,0, ,,2,1
3390,3390,NAPA VALLEY AV / SONOMA BLVD,,,43.81722,-79.62513,1,,0, ,,2,1
3391,3391,ROYAL ORCHARD BLVD / SHADY LANE CRE,ROYAL ORCHARD BLVD & SHADY LANE CRES,,43.824208,-79.409324,1,,0, ,,2,1
3392,3392,NAPA VALLEY AV / FONTESELVA AV,,,43.819785,-79.625605,1,,0, ,,1,1
3393,3393,ROYAL ORCHARD BLVD / BLUE SPRUCE LA,ROYAL ORCHARD BLVD & BLUE SPRUCE LANE,,43.824601,-79.406765,1,,0, ,,2,1
3394,3394,NAPA VALLEY AV / CASA VISTA DR,,,43.821181,-79.624827,1,,0, ,,1,1
3395,3395,ROYAL ORCHARD BLVD / DORAL GATE,,,43.824736,-79.404462,1,,0, ,,1,1
3396,3396,NAPA VALLEY AV / SUNSET RIDGE,,,43.822577,-79.622131,1,,0, ,,1,1
3397,3397,ROYAL ORCHARD BLVD / BAYVIEW AV,,,43.822173,-79.402301,1,,0, ,,1,1
3398,3398,NAPA VALLEY AV / MONTE CARLO DR,,,43.822973,-79.620199,1,,0, ,,1,1
3399,3399,WILLOWBROOK RD / TRIMBLE CRT,,,43.829728,-79.398411,1,,0, ,,1,1
3400,3400,NAPA VALLEY AV / MARCO SGOTTO AV,,,43.823517,-79.617296,1,,0, ,,1,1
3401,3401,WILLOWBROOK RD / ABRAHAM AV,,,43.831061,-79.397656,1,,0, ,,2,1
3402,3402,NAPA VALLEY AV / FOREST FOUNTAIN DR,,,43.824148,-79.614259,1,,0, ,,1,1
3403,3403,WILLOWBROOK RD / CHARNWOOD PL,,,43.831271,-79.394321,1,,0, ,,1,1
3404,3404,NAPA VALLEY AV / SILVER OAKS BLVD,,,43.825414,-79.611034,1,,0, ,,1,1
3405,3405,WILLOWBROOK RD / INNISBROOK CRES,,,43.829956,-79.392946,1,,0, ,,1,1
3406,3406,NAPA VALLEY AV / ISLINGTON AV,,,43.825861,-79.609719,1,,0, ,,1,1
3407,3407,WILLOWBROOK RD / BRECKONWOOD CRES,,,43.828665,-79.39162,1,,0, ,,1,1
3408,3408,ISLINGTON AV / HUMBERWOOD GATE,,,43.815883,-79.598627,1,,0, ,,1,1
3409,3409,WILLOWBROOK RD / HOLM CRES,,,43.826813,-79.389816,1,,0, ,,1,1
3410,3410,ISLINGTON AV / WYCLIFFE AV,,,43.814527,-79.596501,1,,0, ,,1,1
3411,3411,GREEN LANE / AILEEN AV,,,43.823945,-79.388532,1,,0, ,,1,1
3412,3412,ISLINGTON AV / WYCLIFFE GATE,,,43.811594,-79.591908,1,,0, ,,1,1
3413,3413,GREEN LANE / KINGS COLLEGE RD,,,43.824733,-79.384864,1,,0, ,,2,1
3414,3414,ISLINGTON AV / KILORAN AV,,,43.807328,-79.587466,1,,0, ,,2,1
3415,3415,GREEN LANE / HUNTINGTON PARK DR,GREEN LANE & HUNTINGTON DR,,43.82576,-79.380194,1,,0, ,,1,1
3416,3416,ISLINGTON AV STOP # 3416,,,43.801459,-79.585005,1,,0, ,,1,1
3417,3417,GREEN LANE / HUNTINGTON PARK DR,,,43.829448,-79.37823,1,,0, ,,1,1
3418,3418,ISLINGTON AV / HAYHOE LANE,,,43.799455,-79.58489,1,,0, ,,1,1
3420,3420,ISLINGTON AV / GAMBLE ST,,,43.797414,-79.584798,1,,0, ,,1,1
3421,3421,SIMONSTON BLVD / GERMAN MILLS RD,,,43.817466,-79.36857,1,,0, ,,2,1
3422,3422,ISLINGTON AV / HARTMAN AV,,,43.795805,-79.584717,1,,0, ,,1,1
3423,3423,SIMONSTON BLVD / THURGATE CRES,,,43.815857,-79.367995,1,,0, ,,1,1
3424,3424,ISLINGTON AV / DAVIDSON DR,,,43.792421,-79.584727,1,,0, ,,1,1
3425,3425,SIMONSTON BLVD / WAGGONERS WELLS LA,SIMONSTON BLVD & WAGGONERS WELLS LANE,,43.813176,-79.36581,1,,0, ,,2,1
3426,3426,ISLINGTON AV / THISTLEWOOD AV,,,43.789067,-79.587471,1,,0, ,,1,1
3427,3427,SIMONSTON BLVD / DON MILLS RD,,,43.813973,-79.362221,1,,0, ,,1,1
3428,3428,ISLINGTON AV / WOODBRIDGE AV,,,43.786845,-79.589097,1,,0, ,,1,1
3429,3429,SIMONSTON BLVD / DERSINGHAM CRES,,,43.815483,-79.359907,1,,0, ,,1,1
3430,3430,ISLINGTON AV / HIGHWAY 7,,,43.780974,-79.589758,1,,0, ,,1,1
3431,3431,SIMONSTON BLVD / CHUMLEIGH CRES,,,43.817041,-79.360543,1,,0, ,,1,1
3432,3432,ISLINGTON AV / LEGION COURT RD,,,43.779221,-79.586868,1,,0, ,,1,1
3433,3433,SIMONSTON BLVD / CHUMLEIGH CRES,,,43.818737,-79.361261,1,,0, ,,1,1
3434,3434,ISLINGTON AV STOP # 3434,,,43.777736,-79.584177,1,,0, ,,1,1
3435,3435,SIMONSTON BLVD / SNOWSHOE CRES,,,43.821301,-79.362466,1,,0, ,,2,1
3436,3436,ISLINGTON AV STOP # 3436,,,43.775326,-79.581114,1,,0, ,,1,1
3437,3437,SIMONSTON BLVD / FLOWERVALE RD,,,43.820788,-79.36554,1,,0, ,,1,1
3438,3438,ISLINGTON AV STOP # 3438,,,43.771617,-79.579416,1,,0, ,,1,1
3439,3439,SIMONSTON BLVD / DON MILLS RD,,,43.819543,-79.366915,1,,0, ,,1,1
3440,3440,ISLINGTON AV / STEELES AV,,,43.764522,-79.575092,1,,0, ,,1,1
3441,3441,STEELES AV LOOP STOP # 3441,,,43.764143,-79.576585,1,,0, ,,1,1
3442,3442,ISLINGTON AV / STEELES AV,,,43.765203,-79.575136,1,,0, ,,1,1
3443,3443,ISLINGTON AV STOP # 3443,,,43.772344,-79.579212,1,,0, ,,1,1
3444,3444,ISLINGTON AV STOP # 3444,,,43.775144,-79.58071,1,,0, ,,1,1
3445,3445,ISLINGTON AV STOP # 3445,,,43.777753,-79.583753,1,,0, ,,1,1
3446,3446,ISLINGTON AV / PIONEER LANE,,,43.7791,-79.586222,1,,0, ,,1,1
3447,3447,ISLINGTON AV / HIGHWAY 7,,,43.780362,-79.588838,1,,0, ,,1,1
3448,3448,ISLINGTON AV / WOODBRIDGE AV,,,43.786541,-79.58876,1,,0, ,,1,1
3449,3449,ISLINGTON AV / THISTLEWOOD AV,,,43.789346,-79.586503,1,,0, ,,1,1
3450,3450,ISLINGTON AV / WILLIS RD,,,43.791961,-79.584551,1,,0, ,,1,1
3451,3451,ISLINGTON AV / HARTMAN AV,,,43.795148,-79.584553,1,,0, ,,1,1
3452,3452,ISLINGTON AV / PINE GROVE RD,,,43.797703,-79.584636,1,,0, ,,1,1
3453,3453,ISLINGTON AV / HAYHOE LANE,,,43.798704,-79.584655,1,,0, ,,1,1
3454,3454,ISLINGTON AV / LANGSTAFF RD,,,43.80193,-79.584817,1,,0, ,,1,1
3455,3455,ISLINGTON AV / KILORAN AV,,,43.807111,-79.587014,1,,0, ,,1,1
3456,3456,ISLINGTON AV STOP # 3456,,,43.809285,-79.58849,1,,0, ,,1,1
3457,3457,ISLINGTON AV / WYCLIFFE GATE,,,43.811564,-79.591462,1,,0, ,,2,1
3458,3458,ISLINGTON AV / ARISTA GATE,,,43.814299,-79.595645,1,,0, ,,2,1
3459,3459,ISLINGTON AV / HUMBERWOOD GATE,,,43.815723,-79.597908,1,,0, ,,2,1
3460,3460,WOODBRIDGE AV / CLARENCE ST,,,43.785881,-79.59112,1,,0, ,,1,1
3461,3461,WOODBRIDGE AV STOP # 3461,,,43.784919,-79.592989,1,,0, ,,2,1
3462,3462,WOODBRIDGE AV / JAMES ST,,,43.784097,-79.59608,1,,0, ,,1,1
3463,3463,WOODBRIDGE AV / KIPLING AV,,,43.783635,-79.598924,1,,0, ,,1,1
3464,3464,WOODBRIDGE AV / MOONSTONE PL,,,43.78379,-79.603073,1,,0, ,,1,1
3465,3465,WOODBRIDGE AV / FOREST DR,,,43.783265,-79.605793,1,,0, ,,1,1
3472,3472,MARTIN GROVE RD / TRITON AV,,,43.783703,-79.610659,1,,0, ,,1,1
3473,3473,MARTIN GROVE RD / BELLONA ST,,,43.785272,-79.61131,1,,0, ,,1,1
3474,3474,MARTIN GROVE RD / JACKMAN CRES,,,43.786659,-79.611916,1,,0, ,,1,1
3475,3475,MARTIN GROVE RD / FOREST DR,,,43.789375,-79.613012,1,,0, ,,1,1
3476,3476,MARTIN GROVE RD / GOLDFINCH PL,,,43.790929,-79.615866,1,,0, ,,1,1
3479,3479,MARTIN GROVE RD / CONDOTTI DR,,,43.793749,-79.62039,1,,0, ,,2,1
3480,3480,MARTIN GROVE RD / SICILIA ST,,,43.798426,-79.6191,1,,0, ,,1,1
3481,3481,MARTIN GROVE RD / CASTLEPOINT DR,,,43.800516,-79.622507,1,,0, ,,1,1
3482,3482,MARTIN GROVE RD / ANDY CRES,,,43.800884,-79.62528,1,,0, ,,1,1
3483,3483,MARTIN GROVE RD / HIGHWAY 27,,,43.800314,-79.628141,1,,0, ,,2,1
3484,3484,RUTHERFORD RD / FOREST FOUNTAIN DR,,,43.814407,-79.61133,1,,0, ,,1,1
3485,3485,RUTHERFORD RD / CLARENCE ST,,,43.81555,-79.606169,1,,0, ,,1,1
3486,3486,RUTHERFORD RD / ISLINGTON AV,,,43.816914,-79.600366,1,,0, ,,1,1
3487,3487,MARTIN GROVE RD / FOREST DR,,,43.788753,-79.612978,1,,0, ,,1,1
3488,3488,MARTIN GROVE RD / JACKMAN CRES,,,43.7872,-79.612323,1,,0, ,,1,1
3489,3489,MARTIN GROVE RD / BELLONA ST,,,43.7851,-79.611459,1,,0, ,,1,1
3490,3490,MARTIN GROVE RD / WOODBRIDGE AV,,,43.783252,-79.610704,1,,0, ,,1,1
3491,3491,STEELES AV / DUMONT AV,,,43.798613,-79.41715,1,,0, ,,2,1
3493,3493,STEELES AV / WILLOWDALE AV,,,43.79915,-79.414578,1,,0, ,,1,1
3495,3495,STEELES AV / LILLIAN ST,,,43.799827,-79.411529,1,,0, ,,1,1
3497,3497,STEELES AV STOP # 3497,,,43.800293,-79.409432,1,,0, ,,1,1
3498,3498,WOODBRIDGE AV / JAMES ST,,,43.784175,-79.596285,1,,0, ,,1,1
3499,3499,STEELES AV / MAXOME AV,,,43.801086,-79.405841,1,,0, ,,1,1
3500,3500,WOODBRIDGE AV / WALLACE ST,,,43.784474,-79.594245,1,,0, ,,1,1
3501,3501,STEELES AV / GRANDVIEW AV,,,43.801966,-79.401813,1,,0, ,,1,1
3502,3502,WOODBRIDGE AV / CLARENCE ST,,,43.785522,-79.591366,1,,0, ,,1,1
3515,3515,MARTIN GROVE RD / STEELES AV,,,43.758523,-79.603845,1,,0, ,,1,1
3517,3517,MARTIN GROVE RD STOP # 3517,,,43.762939,-79.606115,1,,0, ,,1,1
3519,3519,MARTIN GROVE RD STOP # 3519,,,43.7667,-79.607019,1,,0, ,,1,1
3521,3521,MARTIN GROVE RD / ROYSUN RD,,,43.769042,-79.607565,1,,0, ,,1,1
3523,3523,MARTIN GROVE RD / WOODSTREAM BLVD,,,43.772903,-79.608515,1,,0, ,,1,1
3525,3525,MARTIN GROVE RD / HIGHWAY 7,,,43.775647,-79.609193,1,,0, ,,1,1
3527,3527,MARTIN GROVE RD / ANDREW PARK,,,43.777783,-79.609866,1,,0, ,,1,1
3529,3529,MARTIN GROVE RD / RAYMOND RD,,,43.78081,-79.610555,1,,0, ,,1,1
3531,3531,MORNING STAR DR / MARTIN GROVE RD,,,43.791815,-79.620413,1,,0, ,,1,1
3533,3533,MORNING STAR DR / CABINET CRES,,,43.791352,-79.621838,1,,0, ,,1,1
3535,3535,MORNING STAR DR / NICKLE GATE,,,43.788798,-79.623201,1,,0, ,,1,1
3537,3537,MORNING STAR DR / MEDALLION BLVD,,,43.784712,-79.622442,1,,0, ,,1,1
3541,3541,MARTIN GROVE RD / DOLORES CRES,,,43.800621,-79.62579,1,,0, ,,1,1
3543,3543,MARTIN GROVE RD / DOLORES CR,MARTIN GROVE RD & DOLORES CRES,,43.800231,-79.622089,1,,0, ,,2,1
3545,3545,MARTIN GROVE RD / SICILIA ST,,,43.798772,-79.619269,1,,0, ,,1,1
3548,3548,MARTIN GROVE RD / CONDOTTI DR,,,43.793885,-79.620649,1,,0, ,,1,1
3552,3552,MARTIN GROVE RD / ZINNIA PL,,,43.790722,-79.6163,1,,0, ,,2,1
3554,3554,MARTIN GROVE RD / HARRIS CRES,,,43.780646,-79.610723,1,,0, ,,1,1
3556,3556,MARTIN GROVE RD / AUBURN RD,,,43.777678,-79.610062,1,,0, ,,1,1
3558,3558,MARTIN GROVE RD / HIGHWAY 7,,,43.77622,-79.609657,1,,0, ,,1,1
3560,3560,MARTIN GROVE RD / REGINA RD,,,43.773341,-79.608952,1,,0, ,,1,1
3562,3562,MARTIN GROVE RD / ROYSUN RD,,,43.769348,-79.607978,1,,0, ,,1,1
3564,3564,MARTIN GROVE RD STOP # 3564,,,43.767299,-79.607428,1,,0, ,,1,1
3566,3566,MARTIN GROVE RD STOP # 3566,,,43.762821,-79.606311,1,,0, ,,1,1
3568,3568,MARTIN GROVE RD / STEELES AV,,,43.758056,-79.603776,1,,0, ,,1,1
3577,3577,STEELES AV / BAYVIEW AV,,,43.803048,-79.3976,1,,0, ,,1,1
3579,3579,STEELES AV / CONACHER DR,,,43.802356,-79.400758,1,,0, ,,1,1
3581,3581,STEELES AV / HENDERSON AV,,,43.801191,-79.406159,1,,0, ,,1,1
3583,3583,STEELES AV STOP # 3583,,,43.800515,-79.409216,1,,0, ,,2,1
3585,3585,STEELES AV / JEWELL ST,,,43.799966,-79.411703,1,,0, ,,1,1
3587,3587,STEELES AV / WILLOWDALE BLVD,,,43.799391,-79.414376,1,,0, ,,1,1
3591,3591,STEELES AV / YONGE ST,,,43.79802,-79.42067,1,,0, ,,1,1
3593,3593,STEELES AV STOP # 3593,,,43.797159,-79.424712,1,,0, ,,1,1
3595,3595,STEELES AV / HILDA AV,,,43.796213,-79.429061,1,,0, ,,1,1
3596,3596,WESTON RD / CENTURY PL,,,43.77726,-79.544607,1,,0, ,,1,1
3597,3597,STEELES AV STOP # 3597,,,43.795398,-79.432411,1,,0, ,,1,1
3598,3598,WESTON RD STOP # 3598,,,43.782943,-79.545831,1,,0, ,,1,1
3599,3599,STEELES AV / PALM GATE BLVD,,,43.794536,-79.436374,1,,0, ,,1,1
3601,3601,STEELES AV / EMERALD LANE,,,43.793578,-79.440814,1,,0, ,,1,1
3605,3605,STEELES AV / CONLEY ST,,,43.788861,-79.462964,1,,0, ,,1,1
3606,3606,WESTON RD STOP # 3606,,,43.783281,-79.546216,1,,0, ,,1,1
3607,3607,STEELES AV / DUFFERIN ST,,,43.787478,-79.46978,1,,0, ,,1,1
3608,3608,WESTON RD / AVIVA PARK DR,,,43.777854,-79.545069,1,,0, ,,1,1
3611,3611,STEELES AV / FUTURITY GATE,,,43.786367,-79.474517,1,,0, ,,2,1
3613,3613,STEELES AV STOP # 3613,,,43.785541,-79.47807,1,,0, ,,1,1
3615,3615,STEELES AV / ALNESS ST,,,43.784884,-79.480873,1,,0, ,,1,1
3617,3617,STEELES AV STOP # 3617,,,43.784391,-79.48294,1,,0, ,,1,1
3619,3619,STEELES AV / CAPSTAN GATE,,,43.783436,-79.48704,1,,0, ,,2,1
3621,3621,STEELES AV / TANDEM RD,,,43.78278,-79.489825,1,,0, ,,2,1
3631,3631,STEELES AV / MURRAY ROSS PKWY,,,43.776552,-79.516748,1,,0, ,,1,1
3632,3632,ANSLEY GROVE RD / ABERDEEN AV,,,43.803008,-79.564192,1,,0, ,,1,1
3633,3633,STEELES AV / JANE ST,,,43.775467,-79.522088,1,,0, ,,1,1
3635,3635,STEELES AV / ADESSO DR,,,43.774423,-79.526648,1,,0, ,,2,1
3637,3637,STEELES AV / NORFINCH DR,,,43.773467,-79.531612,1,,0, ,,1,1
3639,3639,STEELES AV STOP # 3639,,,43.772108,-79.538326,1,,0, ,,2,1
3642,3642,STEELES AV / DIRECTOR CRT,,,43.771676,-79.540444,1,,0, ,,1,1
3644,3644,STEELES AV / OLD WESTON RD,,,43.771103,-79.543089,1,,0, ,,1,1
3648,3648,STEELES AV STOP # 3648,,,43.765138,-79.571971,1,,0, ,,1,1
3674,3674,STEELES AV STOP # 3674,,,43.76501,-79.571296,1,,0, ,,1,1
3678,3678,STEELES AV / ROSSDEAN DR,,,43.771401,-79.540804,1,,0, ,,1,1
3680,3680,STEELES AV STOP # 3680,,,43.771964,-79.538092,1,,0, ,,1,1
3682,3682,STEELES AV / NORFINCH DR,,,43.773194,-79.531985,1,,0, ,,1,1
3684,3684,STEELES AV / PETER KAISER GATE,,,43.774211,-79.527054,1,,0, ,,2,1
3686,3686,STEELES AV / JANE ST,,,43.775206,-79.52212,1,,0, ,,1,1
3688,3688,STEELES AV / JANE ST,,,43.775533,-79.520924,1,,0, ,,1,1
3690,3690,STEELES AV / MURRAY ROSS PKWY,,,43.77638,-79.516435,1,,0, ,,1,1
3691,3691,ABERDEEN AV / ASHCROFT CRT,,,43.799946,-79.571121,1,,0, ,,1,1
3693,3693,ABERDEEN AV / ALLISTON RD,,,43.801072,-79.569566,1,,0, ,,2,1
3694,3694,STEELES AV STOP # 3694,,,43.778448,-79.507342,1,,0, ,,1,1
3695,3695,ABERDEEN AV / ANDREA LANE,,,43.802189,-79.567666,1,,0, ,,1,1
3697,3697,ABERDEEN AV / ANSLEY GROVE RD,,,43.802761,-79.564608,1,,0, ,,1,1
3698,3698,STEELES AV / KEELE ST,,,43.781611,-79.493765,1,,0, ,,1,1
3700,3700,STEELES AV / PETROLIA RD,,,43.782446,-79.490237,1,,0, ,,2,1
3702,3702,STEELES AV / SHALE GATE,,,43.783097,-79.487481,1,,0, ,,2,1
3704,3704,STEELES AV STOP # 3704,,,43.784194,-79.482804,1,,0, ,,1,1
3705,3705,STEELES AV / ALNESS ST,,,43.784779,-79.48028,1,,0, ,,2,1
3706,3706,STEELES AV STOP # 3706,,,43.78538,-79.477823,1,,0, ,,1,1
3707,3707,STEELES AV / GERRY FITZGERALD DR,,,43.786009,-79.475086,1,,0, ,,1,1
3708,3708,STEELES AV / DUFFERIN ST,,,43.787069,-79.470466,1,,0, ,,1,1
3710,3710,STEELES AV / HIDDEN TRL,,,43.78853,-79.463365,1,,0, ,,1,1
3713,3713,STEELES AV / BATHURST ST,,,43.792606,-79.444574,1,,0, ,,1,1
3714,3714,STEELES AV / VILLAGE GATE,,,43.793359,-79.441176,1,,0, ,,1,1
3715,3715,STEELES AV / CACTUS AV,,,43.794295,-79.436715,1,,0, ,,1,1
3716,3716,STEELES AV STOP # 3716,,,43.795135,-79.432926,1,,0, ,,1,1
3717,3717,STEELES AV / HILDA AV,,,43.795906,-79.429429,1,,0, ,,1,1
3718,3718,STEELES AV / TANGREEN CRT,,,43.796526,-79.426559,1,,0, ,,1,1
3719,3719,STEELES AV STOP # 3719,,,43.797323,-79.422779,1,,0, ,,1,1
3722,3722,PINE VALLEY DR / STEELES AV,,,43.767264,-79.565497,1,,0, ,,1,1
3723,3723,PINE VALLEY DR / HANLAN RD,,,43.767866,-79.567122,1,,0, ,,1,1
3724,3724,PINE VALLEY DR / STRADA DR,,,43.77994,-79.571887,1,,0, ,,2,1
3725,3725,PINE VALLEY DR / TALL GRASS TRL,,,43.781901,-79.572424,1,,0, ,,2,1
3726,3726,PINE VALLEY DR / HIGHWAY 7,,,43.78503,-79.57318,1,,0, ,,1,1
3727,3727,PINE VALLEY DR / ROYAL GARDEN BLVD,,,43.786536,-79.573565,1,,0, ,,2,1
3728,3728,PINE VALLEY DR / EMBASSY DR,,,43.788405,-79.573996,1,,0, ,,2,1
3729,3729,PINE VALLEY DR / GARVIEW CRT,,,43.792853,-79.575223,1,,0, ,,2,1
3730,3730,PINE VALLEY DR / CHANCELLOR DR,,,43.794542,-79.575586,1,,0, ,,1,1
3732,3732,PINE VALLEY DR / WILLIS RD,,,43.794333,-79.57579,1,,0, ,,1,1
3733,3733,PINE VALLEY DR / GARVIEW CRT,,,43.793017,-79.57545,1,,0, ,,2,1
3734,3734,PINE VALLEY DR / VILLA PARK DR,,,43.788792,-79.574449,1,,0, ,,1,1
3735,3735,PINE VALLEY DR / ROYAL GARDEN BLVD,,,43.786758,-79.573847,1,,0, ,,2,1
3736,3736,PINE VALLEY DR / HIGHWAY 7,,,43.784617,-79.573365,1,,0, ,,1,1
3737,3737,PINE VALLEY DR / TALL GRASS TRL,,,43.782245,-79.572775,1,,0, ,,1,1
3738,3738,PINE VALLEY DR / PINE YORK AV,,,43.77976,-79.572106,1,,0, ,,1,1
3739,3739,PINE VALLEY DR / VINYL CRT,,,43.767865,-79.5679,1,,0, ,,1,1
3740,3740,PINE VALLEY DR / STEELES AV,,,43.766913,-79.565273,1,,0, ,,1,1
3751,3751,WESTON RD / HAWKVIEW BLVD,,,43.82777,-79.556448,1,,0, ,,1,1
3752,3752,WESTON RD / COMDEL BLVD,,,43.830162,-79.55702,1,,0, ,,1,1
3754,3754,WESTON RD / VILLA ROYALE AV,,,43.837369,-79.558757,1,,0, ,,2,1
3755,3755,WESTON RD / HAWSTONE RD,,,43.84038,-79.559406,1,,0, ,,1,1
3756,3756,MAJOR MACKENZIE DR / WESTON RD,,,43.844748,-79.560792,1,,0, ,,1,1
3758,3758,WESTON RD / VILLA ROYALE AV,,,43.837862,-79.559141,1,,0, ,,1,1
3761,3761,WESTON RD / RUTHERFORD RD,,,43.82662,-79.556516,1,,0, ,,1,1
3773,3773,EDGELEY BLVD / PORTAGE PKWAY,101 EDGELEY BLVD & PORTAGE PKWAY,,43.796871,-79.532531,1,,0, ,,1,1
3791,3791,PORTAGE PKWY / EDGELEY BLVD,872 PORTAGE PKWAY & EDGELEY BLVD,,43.797183,-79.532511,1,,0, ,,1,1
3793,3793,JANE ST / STEELES AV,,,43.776279,-79.521541,1,,0, ,,1,1
3794,3794,JANE ST STOP # 3794,,,43.778298,-79.520604,1,,0, ,,1,1
3795,3795,JANE ST STOP # 3795,,,43.78073,-79.520995,1,,0, ,,1,1
3801,3801,JANE ST STOP # 3801,,,43.780723,-79.521298,1,,0, ,,2,1
3810,3810,EDGELEY BLVD / COURTLAND AV,,,43.812825,-79.538528,1,,0, ,,2,1
3821,3821,JANE ST / BAGG ST,,,43.819467,-79.529804,1,,0, ,,1,1
3822,3822,JANE ST / LOCKE ST,,,43.82349,-79.530738,1,,0, ,,1,1
3824,3824,JANE ST / RUTHERFORD RD,,,43.830627,-79.532409,1,,0, ,,1,1
3826,3826,SPRINGSIDE RD / PARKTREE DR,,,43.838741,-79.53126,1,,0, ,,1,1
3827,3827,MELVILLE AV / SPRINGSIDE RD,,,43.840137,-79.52895,1,,0, ,,1,1
3829,3829,MELVILLE AV / AVRO RD,,,43.846546,-79.530617,1,,0, ,,1,1
3830,3830,MELVILLE AV / MAJOR MACKENZIE DR,,,43.850142,-79.531689,1,,0, ,,1,1
3831,3831,AHMADIYYA AV / TAHIR ST,,,43.865468,-79.542708,1,,0, ,,2,1
3832,3832,AHMADIYYA AV / MOSQUE GATE,,,43.865298,-79.544946,1,,0, ,,1,1
3833,3833,MOSQUE GATE / TESTON RD,,,43.866527,-79.545384,1,,0, ,,1,1
3834,3834,TESTON RD / JANE ST,,,43.868286,-79.541318,1,,0, ,,1,1
3835,3835,JANE ST / AMERICA AV,,,43.862852,-79.539765,1,,0, ,,2,1
3836,3836,MELVILLE AV / AVRO RD,,,43.846959,-79.530933,1,,0, ,,2,1
3837,3837,MELVILLE AV / NORWOOD AV,,,43.8439,-79.530493,1,,0, ,,1,1
3838,3838,MELVILLE AV / SPRINGSIDE RD,,,43.840125,-79.529151,1,,0, ,,1,1
3839,3839,SPRINGSIDE RD / PARKTREE DR,,,43.838937,-79.530693,1,,0, ,,1,1
3841,3841,JANE ST / RUTHERFORD RD,,,43.831187,-79.532934,1,,0, ,,1,1
3842,3842,JANE ST / RIVEROCK GATE,,,43.827908,-79.53213,1,,0, ,,1,1
3843,3843,JANE ST / LOCKE ST,,,43.824221,-79.53123,1,,0, ,,1,1
3844,3844,JANE ST / GENSAL GATE,,,43.819958,-79.530248,1,,0, ,,1,1
3845,3845,JANE ST / COURTLAND AV,,,43.815488,-79.529235,1,,0, ,,1,1
3895,3895,THORNHILL WOODS DR / COLTRANE DR,,,43.834668,-79.467787,1,,0, ,,1,1
3896,3896,THORNHILL WOODS DR / SUMMERIDGE DR,,,43.831436,-79.466403,1,,0, ,,1,1
3902,3902,THORNHILL WOODS DR / SUMMERIDGE DR,,,43.831467,-79.466259,1,,0, ,,1,1
3903,3903,THORNHILL WOODS DR / COLTRANE DR,,,43.834475,-79.467509,1,,0, ,,1,1
3930,3930,KEELE ST / RUTHERFORD RD,,,43.836238,-79.50783,1,,0, ,,2,1
3931,3931,KEELE ST / DINA RD,,,43.839134,-79.508534,1,,0, ,,1,1
3932,3932,KEELE ST / FIELDGATE DR,,,43.842034,-79.509257,1,,0, ,,1,1
3933,3933,KEELE ST / KNIGHTSWOOD AV,,,43.845448,-79.510168,1,,0, ,,1,1
3934,3934,KEELE ST / BARRHILL RD,,,43.850258,-79.511249,1,,0, ,,1,1
3935,3935,KEELE ST STOP # 3935,,,43.852815,-79.511825,1,,0, ,,1,1
3940,3940,KEELE ST STOP # 3940,,,43.864946,-79.514573,1,,0, ,,2,1
3949,3949,DRUMMOND DR / TREASURE HILL RD,,,43.867529,-79.516166,1,,0, ,,1,1
3950,3950,DRUMMOND DR / ST. JOAN OF ARC AV,,,43.866917,-79.519899,1,,0, ,,2,1
3951,3951,DRUMMOND DR / MONTEITH CRES,,,43.86596,-79.524698,1,,0, ,,1,1
3952,3952,DRUMMOND DR / CRANSTON PARK AV,,,43.865484,-79.528726,1,,0, ,,1,1
3964,3964,KEELE ST STOP # 3964,,,43.852815,-79.51201,1,,0, ,,2,1
3965,3965,KEELE ST / BARRHILL RD,,,43.850705,-79.511528,1,,0, ,,1,1
3966,3966,KEELE ST / KNIGHTSWOOD AV,KEELE ST & KNIGHTSWOOD AVE,,43.845755,-79.510419,1,,0, ,,1,1
3967,3967,KEELE ST / CROMWELL RD,,,43.84245,-79.50971,1,,0, ,,1,1
3968,3968,KEELE ST / DINA RD,,,43.839456,-79.508947,1,,0, ,,1,1
3969,3969,KEELE ST / RUTHERFORD RD,,,43.836633,-79.508349,1,,0, ,,1,1
3970,3970,MELVILLE AV / PARKTREE DR,,,43.838385,-79.525604,1,,0, ,,1,1
3978,3978,AMERICA AV / COAST AV,,,43.861699,-79.543344,1,,0, ,,1,1
3979,3979,AMERICA AV / TREASURE RD,,,43.859781,-79.546593,1,,0, ,,1,1
3980,3980,AMERICA AV / JOHN DEISMAN BLVD,,,43.858524,-79.548248,1,,0, ,,2,1
3981,3981,JOHN DEISMAN BLVD / TIERRA AV,,,43.855994,-79.547419,1,,0, ,,1,1
3982,3982,TIERRA AV / DISCOVERY TRL,,,43.856604,-79.542101,1,,0, ,,1,1
3983,3983,TIERRA AV / JANE ST,,,43.856953,-79.538592,1,,0, ,,1,1
3984,3984,MELVILLE AV / PARKTREE DR,,,43.838482,-79.526286,1,,0, ,,1,1
4014,4014,DUFFERIN ST / CLARK AV,,,43.79695,-79.472253,1,,0, ,,1,1
6237,6237,CENTRE ST / WADE GATE,,,43.806677,-79.469121,1,,0, ,,1,1
4021,4021,CENTRE ST / CARL TENNEN ST,,,43.807642,-79.464577,1,,0, ,,1,1
4022,4022,CENTRE ST / TAIGA DR,,,43.808389,-79.461283,1,,0, ,,1,1
4023,4023,CENTRE ST / NEW WESTMINSTER DR,,,43.809223,-79.457557,1,,0, ,,1,1
4024,4024,PROMENADE TERMINAL PLATFORM 1,1 PROMENADE CIR PROMENADE TERMINAL & PLATFORM 1,1,43.809682,-79.454219,1,,0,18,,1,1
4025,4025,PROMENADE TERMINAL PLATFORM 2,1 PROMENADE CIR PROMENADE TERMINAL & PLATFORM 2,2,43.809727,-79.453986,1,,0,18,,1,1
4026,4026,PROMENADE TERMINAL PLATFORM 4,1 PROMENADE CIR PROMENADE TERMINAL & PLATFORM 4,4,43.809497,-79.453914,1,,0,18,,1,1
4027,4027,PROMENADE TERMINAL PLATFORM 5,1 PROMENADE CIR PROMENADE TERMINAL & PLATFORM 5,5,43.80934,-79.454,1,,0,18,,1,1
4031,4031,PROMENADE TERMINAL PLATFORM 8,1 PROMENADE CIR PROMENADE TERMINAL & PLATFORM 8,8,43.809634,-79.454388,1,,0,18,,1,1
4032,4032,CENTRE ST / BATHURST ST,,,43.810619,-79.45023,1,,0, ,,1,1
4033,4033,CENTRE ST / ATKINSON AV,,,43.812106,-79.443685,1,,0, ,,1,1
4034,4034,CENTRE ST / ROSE GREEN DR,,,43.813223,-79.438628,1,,0, ,,2,1
4035,4035,CENTRE ST / MARKWOOD LANE,,,43.813747,-79.436276,1,,0, ,,1,1
4036,4036,CENTRE ST / OAKBANK RD,,,43.814526,-79.432606,1,,0, ,,1,1
4037,4037,CENTRE ST / BROOKE ST,,,43.815604,-79.427575,1,,0, ,,1,1
4038,4038,CENTRE ST / OLD YONGE ST,,,43.816249,-79.425194,1,,0, ,,1,1
4039,4039,CENTRE ST / YONGE ST,,,43.816138,-79.425221,1,,0, ,,1,1
4040,4040,CENTRE ST / THORNBANK RD,,,43.815666,-79.427892,1,,0, ,,2,1
4041,4041,CENTRE ST / OAKBANK RD,,,43.81469,-79.432384,1,,0, ,,1,1
4042,4042,CENTRE ST / ERICA RD,,,43.813938,-79.435924,1,,0, ,,1,1
4043,4043,CENTRE ST / ROSE GREEN DR,,,43.813455,-79.438198,1,,0, ,,1,1
4044,4044,CENTRE ST / ATKINSON AV,,,43.81248,-79.4428,1,,0, ,,1,1
4045,4045,CENTRE ST / BATHURST ST,,,43.811062,-79.449522,1,,0, ,,1,1
4046,4046,CENTRE ST / NEW WESTMINSTER DR,,,43.809698,-79.457067,1,,0, ,,1,1
4047,4047,CENTRE ST / TAIGA DR,,,43.808844,-79.460624,1,,0, ,,1,1
4048,4048,CENTRE ST / VAUGHAN BLVD,,,43.808044,-79.464081,1,,0, ,,1,1
4049,4049,CENTRE ST / CONCORD RD,,,43.807055,-79.468684,1,,0, ,,1,1
4128,4128,HIGHWAY 7 / NORTH RIVERMEDE RD,,,43.805744,-79.482931,1,,0, ,,2,1
4129,4129,HIGHWAY 7 / BOWES RD,,,43.802496,-79.490286,1,,0, ,,1,1
4130,4130,HIGHWAY 7 / KEELE ST,,,43.800579,-79.499136,1,,0, ,,1,1
4131,4131,HIGHWAY 7 / CREDITSTONE RD,,,43.795965,-79.51758,1,,0, ,,1,1
4132,4132,HIGHWAY 7 / JANE ST,,,43.794411,-79.524229,1,,0, ,,1,1
4133,4133,HIGHWAY 7 / EDGELEY BLVD,,,43.792984,-79.530799,1,,0, ,,1,1
4134,4134,HIGHWAY 7 / NOVA STAR DR,,,43.788788,-79.551476,1,,0, ,,1,1
4135,4135,HIGHWAY 7 / ABERDEEN AV,,,43.78572,-79.566404,1,,0, ,,1,1
4136,4136,HIGHWAY 7 / WIGWOSS DR,,,43.782993,-79.579416,1,,0, ,,1,1
4137,4137,HIGHWAY 7 / BRUCE ST,,,43.781858,-79.584121,1,,0, ,,1,1
4138,4138,HIGHWAY 7 / PARKFIELD CRT,,,43.776957,-79.605191,1,,0, ,,1,1
4139,4139,HIGHWAY 7 STOP # 4139,,,43.775279,-79.612731,1,,0, ,,2,1
4140,4140,HIGHWAY 7 / HIGHWAY 27,,,43.773496,-79.620722,1,,0, ,,1,1
4141,4141,HIGHWAY 7 / VAUGHAN VALLEY BLVD,,,43.772458,-79.625159,1,,0, ,,1,1
4145,4145,HIGHWAY 7 / HIGHWAY 27,,,43.773496,-79.619176,1,,0, ,,1,1
4146,4146,HIGHWAY 7 STOP # 4146,,,43.774917,-79.613178,1,,0, ,,1,1
4147,4147,HIGHWAY 7 / WOODSTREAM BLVD,,,43.77661,-79.605681,1,,0, ,,1,1
4148,4148,HIGHWAY 7 / BRUCE ST,,,43.781775,-79.583721,1,,0, ,,1,1
4149,4149,HIGHWAY 7 / HELEN ST,,,43.782506,-79.579982,1,,0, ,,1,1
4150,4150,HIGHWAY 7 / MARYCROFT AV,,,43.785227,-79.567006,1,,0, ,,1,1
4151,4151,HIGHWAY 7 / NOVA STAR DR,,,43.788354,-79.552058,1,,0, ,,1,1
4152,4152,HIGHWAY 7 / INTERCHANGE WAY,,,43.792435,-79.531206,1,,0, ,,1,1
4153,4153,HIGHWAY 7 / JANE ST,,,43.793804,-79.524773,1,,0, ,,1,1
4154,4154,HIGHWAY 7 / CREDITSTONE RD,,,43.795416,-79.518061,1,,0, ,,1,1
4155,4155,HIGHWAY 7 / KEELE ST,,,43.799959,-79.499674,1,,0, ,,1,1
4156,4156,HIGHWAY 7 / BALDWIN AV,,,43.802164,-79.490613,1,,0, ,,1,1
4157,4157,HIGHWAY 7 / CENTRE ST,,,43.805852,-79.482493,1,,0, ,,1,1
4198,4198,BERNARD TERMINAL PLATFORM 6,10909 YONGE ST BERNARD TERMINAL & PLATFORM 6,6,43.894757,-79.441377,1,,0,11,,1,1
4245,4245,LANGSTAFF RD / WESTON RD,,,43.808107,-79.55157,1,,0, ,,1,1
4254,4254,LANGSTAFF RD / SILMAR DR,,,43.808343,-79.548641,1,,0, ,,1,1
4258,4258,YONGE ST / YONGEHURST RD,,,43.862826,-79.435526,1,,0, ,,1,1
4259,4259,YONGE ST STOP # 4259,,,43.855794,-79.433883,1,,0, ,,1,1
4260,4260,YONGE ST / SPRUCE AV,,,43.851521,-79.432818,1,,0, ,,1,1
4261,4261,YONGE ST / OAK AV,,,43.850147,-79.432549,1,,0, ,,1,1
4262,4262,YONGE ST / EDGAR AV,,,43.848431,-79.432098,1,,0, ,,1,1
4264,4264,ABERDEEN AV / MISTY MEADOW DR,,,43.797446,-79.572029,1,,0, ,,1,1
4265,4265,MAJOR MACKENZIE DR / CEDAR AV,,,43.873121,-79.428468,1,,0, ,,2,1
4266,4266,MAJOR MACKENZIE DR / RICHARD PERSON,MAJOR MACKENZIE DR & RICHARD PERSON DR,,43.887097,-79.361836,1,,0, ,,1,1
4267,4267,MAJOR MACKENZIE DR / HAZELTON AV,,,43.887448,-79.361376,1,,0, ,,1,1
4268,4268,MAJOR MACKENZIE DR / OLD 17TH AV,,,43.890942,-79.347249,1,,0, ,,1,1
4269,4269,MAJOR MACKENZIE DR / WARDEN AV,,,43.892157,-79.343621,1,,0, ,,1,1
4270,4270,MAJOR MACKENZIE DR / GLENBOURNE PK,MAJOR MACKENZIE DR & GLENBOURNE PK DR,,43.892945,-79.340366,1,,0, ,,1,1
4271,4271,MAJOR MACKENZIE DR / WARDEN AV,,,43.892698,-79.342026,1,,0, ,,1,1
4272,4272,MAJOR MACKENZIE DR / GLENBOURNE PK,MAJOR MACKENZIE DR & GLENBOURNE PK DR,,43.892716,-79.340659,1,,0, ,,1,1
4273,4273,EDGELEY BLVD / LANGSTAFF RD,,,43.810728,-79.537937,1,,0, ,,1,1
4274,4274,ABERDEEN AV / CHANCELLOR DR,,,43.795499,-79.571569,1,,0, ,,1,1
4275,4275,EDGELEY BLVD / COURTLAND AV,,,43.812499,-79.538582,1,,0, ,,2,1
4277,4277,ABERDEEN AV / ASHCROFT CRT,,,43.800026,-79.57127,1,,0, ,,2,1
4278,4278,ABERDEEN AV / QUEENSTON CRES,,,43.797684,-79.572424,1,,0, ,,1,1
4280,4280,ANSLEY GROVE RD / LANGSTAFF RD,,,43.804764,-79.564433,1,,0, ,,1,1
4281,4281,ANSLEY GROVE RD / LANGSTAFF RD,,,43.804728,-79.564601,1,,0, ,,2,1
4282,4282,LANGSTAFF RD / STAN GATE,,,43.806528,-79.558164,1,,0, ,,1,1
4283,4283,LANGSTAFF RD / WESTON RD,,,43.80773,-79.552303,1,,0, ,,1,1
4284,4284,MAJOR MACKENZIE DR / STARLING BLVD,,,43.845084,-79.55736,1,,0, ,,1,1
4285,4285,CHANCELLOR DR / ABERDEEN AV,,,43.795134,-79.571916,1,,0, ,,2,1
4287,4287,YONGE ST / WESTWOOD LANE,,,43.84459,-79.431204,1,,0, ,,1,1
4289,4289,THE SHOPS ON STEELES STOP # 4289,,,43.812704,-79.358781,1,,0, ,,1,1
4295,4295,ASHBERRY BLVD / WESTON RD,,,43.834626,-79.557307,1,,0, ,,2,1
4297,4297,ASHBERRY BLVD / OLAND DR,,,43.835093,-79.554735,1,,0, ,,1,1
4302,4302,HIGHWAY 7 / MARTIN GROVE RD,,,43.776164,-79.608975,1,,0, ,,1,1
4304,4304,YONGE ST / OBSERVATORY LANE,,,43.858256,-79.434036,1,,0, ,,1,1
4305,4305,MELVILLE AV / RUTHERFORD RD,,,43.834436,-79.522587,1,,0, ,,1,1
4308,4308,VAUGHAN MILLS / SOUTH ENTRANCE,VAUGHAN MILLS MALL STOP # 4308,,43.823275,-79.536888,1,,0, ,,2,1
4309,4309,YONGE ST / MAY AV,,,43.864177,-79.435828,1,,0, ,,1,1
4310,4310,MAJOR MACKENZIE DR / VELLORE WOODS,MAJOR MACKENZIE DR & VELLORE WOODS BLVD,,43.845382,-79.554366,1,,0, ,,1,1
4311,4311,MAJOR MACKENZIE DR / CITYVIEW BLVD,,,43.845763,-79.553825,1,,0, ,,1,1
4314,4314,LANGSTAFF RD / VALERIA BLVD,,,43.806831,-79.557818,1,,0, ,,1,1
4315,4315,EDGELEY BLVD / LANGSTAFF RD,,,43.811166,-79.537876,1,,0, ,,1,1
4316,4316,EDGELEY BLVD / ROMINA DR,,,43.815061,-79.539272,1,,0, ,,1,1
4318,4318,EDGELEY BLVD / FOUR VALLEY DR,,,43.820118,-79.538805,1,,0, ,,1,1
4320,4320,VAUGHAN MILLS / SOUTH ENTRANCE,ACCESS WAYS,,43.823452,-79.537811,1,,0, ,,1,1
4321,4321,EDGELEY BLVD / FOUR VALLEY DR,,,43.819659,-79.539089,1,,0, ,,1,1
4322,4322,EDGELEY BLVD / CORSTATE AV,,,43.817398,-79.53932,1,,0, ,,1,1
4323,4323,EDGELEY BLVD / FOUR VALLEY DR,,,43.815762,-79.539405,1,,0, ,,1,1
4329,4329,EDGELEY BLVD / CORSTATE AV,,,43.816977,-79.539161,1,,0, ,,1,1
4422,4422,PROMENADE CIR / EAST PROMENADE,,,43.807584,-79.450141,1,,0, ,,1,1
4424,4424,ABERDEEN AV / ANDREA LANE,,,43.802193,-79.568099,1,,0, ,,1,1
4430,4430,BATHURST ST / WOODLAND ACRES CRES,,,43.894326,-79.469887,1,,0, ,,1,1
4434,4434,BAYVIEW AV / WOODRIVER RD,,,43.899955,-79.421185,1,,0, ,,1,1
4436,4436,BATHURST ST / BLOOMINGTON RD,,,43.956773,-79.485222,1,,0, ,,1,1
4437,4437,BAYVIEW AV / FERN AV,,,43.86081,-79.411642,1,,0, ,,2,1
4439,4439,BATHURST ST / HUMBERLAND DR,,,43.950328,-79.483725,1,,0, ,,1,1
4461,4461,RICHMOND HILL CENTRE PLATFORM 8,,8,43.83968,-79.425301,1,,0,10,,1,1
4465,4465,MAJOR MACKENZIE DR STOP # 4465,,,43.893695,-79.336632,1,,0, ,,1,1
4468,4468,RICHMOND HILL CENTRE PLATFORM 7,,7,43.839711,-79.42523,1,,0,10,,1,1
4477,4477,LANGSTAFF RD / TERECAR DR,,,43.808702,-79.547855,1,,0, ,,1,1
4480,4480,FINCH AV / JOHN GARLAND BLVD,,,43.735917,-79.59507,4,,0, ,,1,1
4488,4488,FINCH AV / WESTMORE DR,,,43.734739,-79.601545,1,,0, ,,1,1
4489,4489,FINCH AV / SILVERSTONE DR,,,43.736166,-79.594771,1,,0, ,,1,1
4490,4490,MARTIN GROVE RD/ FINCH AV,,,43.736964,-79.591893,4,,0, ,,1,1
4491,4491,MARTIN GROVE RD / ALBION RD,,,43.742463,-79.594606,1,,0, ,,1,1
4492,4492,MARTIN GROVE RD / LEXINGTON AV,,,43.744396,-79.595533,1,,0, ,,1,1
4493,4493,MARTIN GROVE RD / SILVERSTONE DR,,,43.751089,-79.59883,1,,0, ,,1,1
4496,4496,BERNARD AV / YORKLAND ST,,,43.89525,-79.439307,1,,0, ,,1,1
4499,4499,MELVILLE AV / EDDINGTON PL,,,43.84233,-79.53006,1,,0, ,,1,1
4500,4500,MCNAUGHTON RD / CRANSTON PARK AV,,,43.858369,-79.52319,1,,0, ,,2,1
4501,4501,BRANDON GATE DR / JANE ST,,,43.862774,-79.538804,1,,0, ,,1,1
4572,4572,HILDA AV / CRESTWOOD RD,,,43.798744,-79.42968,1,,0, ,,1,1
4573,4573,HILDA AV / YORK HILL BLVD,,,43.802465,-79.433509,1,,0, ,,1,1
4574,4574,HILDA AV / YORK HILL BLVD,,,43.802664,-79.434099,1,,0, ,,1,1
4575,4575,HILDA AV / CRESTWOOD RD,,,43.798965,-79.42995,1,,0, ,,1,1
4576,4576,HILDA AV / STEELES AV,,,43.796617,-79.429603,1,,0, ,,2,1
4578,4578,ATKINSON AV / SPRING GATE BLVD,,,43.806647,-79.441468,1,,0, ,,1,1
4579,4579,ATKINSON AV / MANOR GATE,,,43.810774,-79.442859,1,,0, ,,1,1
4580,4580,CENTRE ST / ATKINSON AV,,,43.812237,-79.444047,1,,0, ,,1,1
4582,4582,THORNHILL WOODS DR / MATISSE TRL,,,43.837566,-79.468636,1,,0, ,,1,1
4583,4583,THORNHILL WOODS DR / SERENE WAY,,,43.84118,-79.469417,1,,0, ,,2,1
4584,4584,THORNHILL WOODS DR / FOXWOOD RD,,,43.842754,-79.469243,1,,0, ,,1,1
4585,4585,THORNHILL WOODS DR / RUTHERFORD RD,,,43.84467,-79.469879,1,,0, ,,1,1
4586,4586,THORNHILL WOODS DR / MINTWOOD RD,,,43.84389,-79.46978,1,,0, ,,2,1
4587,4587,THORNHILL WOODS DR / FOXWOOD RD,,,43.84257,-79.469368,1,,0, ,,1,1
4588,4588,THORNHILL WOODS DR / APPLE BLOSSOM,THORNHILL WOODS DR & APPLE BLOSSOM DR,,43.840649,-79.469577,1,,0, ,,1,1
4589,4589,THORNHILL WOODS DR / MATISSE TRL,,,43.837858,-79.468849,1,,0, ,,1,1
4590,4590,THORNHILL WOODS DR / AUTUMN HILL BL,THORNHILL WOODS DR & AUTUMN HILL BLVD,,43.835945,-79.468315,1,,0, ,,1,1
4591,4591,MAPLE SUGAR LANE / THORNHILL WOODS,MAPLE SUGAR LANE & THORNHILL WOODS DR,,43.827051,-79.465218,1,,0, ,,2,1
4592,4592,MAPLE SUGAR LANE / DANIEL REAMAN CR,MAPLE SUGAR LANE & DANIEL REAMAN CRES,,43.826541,-79.467594,1,,0, ,,2,1
4593,4593,MAPLE SUGAR LANE / SUGARFOREST DR,,,43.825866,-79.470806,1,,0, ,,2,1
4594,4594,PLEASANT RIDGE / MAPLE SUGAR LANE,PLEASANT RIDGE AV & MAPLE SUGAR LANE,,43.82612,-79.473164,1,,0, ,,1,1
4595,4595,PLEASANT RIDGE AV / MISTYSUGAR TRL,,,43.827517,-79.473557,1,,0, ,,1,1
4596,4596,PLEASANT RIDGE AV / SEABREEZE AV,,,43.829446,-79.473946,1,,0, ,,1,1
4597,4597,PLEASANT RIDGE AV / FIRTREE TRL,,,43.828122,-79.47387,1,,0, ,,1,1
4598,4598,MAPLE SUGAR LANE / SUGARFOREST DR,,,43.825641,-79.471335,1,,0, ,,1,1
4599,4599,MAPLE SUGAR LANE / DANIEL REAMAN CR,MAPLE SUGAR LANE & DANIEL REAMAN CRES,,43.826334,-79.468038,1,,0, ,,1,1
4600,4600,MAPLE SUGAR LANE / THORNHILL WOODS,MAPLE SUGAR LANE & THORNHILL WOODS DR,,43.827005,-79.464866,1,,0, ,,2,1
4610,4610,TIERRA AV / TREASURE RD,,,43.85634,-79.544393,1,,0, ,,2,1
4611,4611,MELVILLE AV / NORWOOD AV,,,43.843611,-79.530307,1,,0, ,,1,1
4617,4617,THORNHILL WOODS DR / AUTUMN HILL BL,THORNHILL WOODS DR & AUTUMN HILL BLVD,,43.835623,-79.468063,1,,0, ,,1,1
4620,4620,ISLINGTON AV / MAJOR MACKENZIE DR,,,43.83194,-79.616747,1,,0, ,,1,1
4623,4623,YONGE ST / HARDING BLVD,,,43.86678,-79.436474,1,,0, ,,1,1
4624,4624,YONGE ST / HOPKINS ST,,,43.869505,-79.437086,1,,0, ,,1,1
4625,4625,ISLINGTON AV / TURNING LEAF DR,,,43.818772,-79.603197,1,,0, ,,1,1
4626,4626,ISLINGTON AV / SONOMA BLVD,,,43.821969,-79.607108,1,,0, ,,1,1
4627,4627,ISLINGTON AV / NAPA VALLEY AV,,,43.826242,-79.609577,1,,0, ,,1,1
4629,4629,ISLINGTON AV / MAJOR MACKENZIE DR,,,43.832014,-79.617241,1,,0, ,,1,1
4631,4631,ISLINGTON AV / TUSCAN WOODS TRL,,,43.828994,-79.611558,1,,0, ,,1,1
4632,4632,ISLINGTON AV / NAPA VALLEY AV,,,43.825939,-79.609092,1,,0, ,,2,1
4633,4633,ISLINGTON AV STOP # 4633,,,43.823641,-79.607797,1,,0, ,,1,1
4634,4634,ISLINGTON AV / SONOMA BLVD,,,43.821716,-79.606616,1,,0, ,,1,1
4636,4636,MELVILLE AV / EDDINGTON PL,,,43.842709,-79.530314,1,,0, ,,2,1
4638,4638,ISLINGTON AV / TUSCAN WOODS TRL,,,43.829158,-79.612229,1,,0, ,,1,1
4676,4676,YONGE ST / LEVENDALE RD,,,43.882786,-79.440034,1,,0, ,,1,1
4678,4678,YONGE ST / INDUSTRIAL PKWY,,,43.980635,-79.462813,1,,0, ,,1,1
4679,4679,YONGE ST STOP # 4679,,,44.034363,-79.475434,1,,0, ,,1,1
4680,4680,GREEN LANE / YONGE ST,,,44.072654,-79.485451,1,,0, ,,1,1
4681,4681,YONGE ST / VALHALLA CRT,,,44.006481,-79.469345,1,,0, ,,1,1
4683,4683,YONGE ST / CHURCH ST,,,43.996791,-79.46697,1,,0, ,,1,1
4684,4684,YONGE ST / KENNEDY ST,,,43.994172,-79.466302,1,,0, ,,1,1
4685,4685,YONGE ST / GILBERT DR,,,43.977941,-79.46255,1,,0, ,,1,1
4686,4686,YONGE ST / RIDGE RD,,,43.972606,-79.461297,1,,0, ,,2,1
4688,4688,YONGE ST / NOTTINGHAM DR,,,43.90495,-79.445298,1,,0, ,,1,1
4689,4689,YONGE ST / RIDGE RD,,,43.972623,-79.461004,1,,0, ,,2,1
4690,4690,YONGE ST / TRAYBORN DR,,,43.885006,-79.440636,1,,0, ,,1,1
4691,4691,NEWMARKET TERMINAL PLATFORM 6,320 EAGLE ST W NEWMARKET TERMINAL & PLATFORM 6,6,44.053076,-79.487077,1,,0,12,,1,1
4692,4692,YONGE ST / WRIGHT ST,,,43.878121,-79.43898,1,,0, ,,1,1
4693,4693,YONGE ST / CENTRE ST,,,43.875626,-79.438322,1,,0, ,,1,1
4694,4694,YONGE ST / ARNOLD CRES,,,43.873782,-79.437899,1,,0, ,,1,1
4695,4695,YONGE ST / HIGH TECH RD,,,43.841704,-79.430455,1,,0, ,,1,1
4696,4696,YONGE ST / GARDEN AV,,,43.83824,-79.429701,1,,0, ,,1,1
4705,4705,YONGE ST / BROOKSIDE RD,,,43.898838,-79.443908,1,,0, ,,1,1
4721,4721,YONGE ST / SUNSET BEACH RD,,,43.943311,-79.454238,1,,0, ,,2,1
4732,4732,HIGHWAY 7 / MILLWAY AV,,,43.793673,-79.527575,1,,0, ,,1,1
4733,4733,HIGHWAY 7 / HUNTINGTON RD,INTERCHANGE-ROAD ALLOWANCE & HUNTINGTON RD,,43.76757,-79.64717,1,,0, ,,1,1
4734,4734,HIGHWAY 7 / MILLWAY AV,,,43.793284,-79.527354,1,,0, ,,1,1
4793,4793,MAJOR MACKENZIE DR / WILLIAM BERCZY,MAJOR MACKENZIE DR & WILLIAM BERCZY BLVD,,43.898458,-79.314331,1,,0, ,,1,1
4794,4794,MAJOR MACKENZIE DR / ANGUS GLEN BLV,MAJOR MACKENZIE DR & ANGUS GLEN BLVD,,43.894061,-79.334108,1,,0, ,,1,1
4795,4795,MAJOR MACKENZIE DR / MARKLAND ST,,,43.884904,-79.372872,1,,0, ,,1,1
4796,4796,MAJOR MACKENZIE DR / KEELE ST,,,43.854715,-79.512653,1,,0, ,,1,1
4797,4797,MAJOR MACKENZIE DR / ROY RAINEY AV,,,43.905177,-79.286528,1,,0, ,,1,1
4798,4798,MAJOR MACKENZIE DR / KENNEDY RD,,,43.897339,-79.319462,1,,0, ,,1,1
4799,4799,MAJOR MACKENZIE DR / MINGAY AV,,,43.90711,-79.278404,1,,0, ,,1,1
4801,4801,MCNAUGHTON RD / KEELE ST,,,43.860881,-79.51437,1,,0, ,,1,1
4802,4802,MCNAUGHTON RD / ST. JOAN OF ARC AV,,,43.85999,-79.519793,1,,0, ,,2,1
4803,4803,MELVILLE AV / HUDSON DR,,,43.848272,-79.531081,1,,0, ,,1,1
4804,4804,MELVILLE AV / HUDSON DR,,,43.848507,-79.531342,1,,0, ,,1,1
4806,4806,MAJOR MACKENZIE DR / HIGHWAY 48,,,43.909726,-79.269161,1,,0, ,,2,1
4807,4807,MAJOR MACKENZIE DR / KENNEDY RD,,,43.897781,-79.318429,1,,0, ,,1,1
4808,4808,MAJOR MACKENZIE DR / WILLIAM BERCZY,MAJOR MACKENZIE DR & WILLIAM BERCZY BLVD,,43.898771,-79.313893,1,,0, ,,1,1
4809,4809,MAJOR MACKENZIE DR / RIDGECREST RD,,,43.900966,-79.30434,1,,0, ,,1,1
4811,4811,MAJOR MACKENZIE DR / STRICKER AV,,,43.904825,-79.288993,1,,0, ,,2,1
4812,4812,MAJOR MACKENZIE DR / STRICKER AV,,,43.904447,-79.289698,1,,0, ,,1,1
4813,4813,MAJOR MACKENZIE DR / MINGAY AV,,,43.907453,-79.277797,1,,0, ,,1,1
4817,4817,MAJOR MACKENZIE DR / MARKHAM RD,,,43.909737,-79.268437,1,,0, ,,1,1
4818,4818,MAJOR MACKENZIE DR / RALPH CHALMERS,MAJOR MACKENZIE DR & RALPH CHALMERS AV,,43.908408,-79.273045,1,,0, ,,1,1
4819,4819,MAJOR MACKENZIE DR / ROY RAINEY AV,,,43.90563,-79.285511,1,,0, ,,1,1
4884,4884,GREEN LANE / FALLINGBROOKE CRT,,,43.830443,-79.377226,1,,0, ,,1,1
4885,4885,GREEN LANE / KINGS COLLEGE RD,,,43.82491,-79.38452,1,,0, ,,1,1
4886,4886,GREEN LANE / WILLOWBROOK RD,,,43.823963,-79.389039,1,,0, ,,1,1
4887,4887,WILLOWBROOK RD / HOLM CRES,,,43.82708,-79.389807,1,,0, ,,1,1
4888,4888,WILLOWBROOK RD / RAVENCLIFFE RD,,,43.828496,-79.391412,1,,0, ,,1,1
4889,4889,WILLOWBROOK RD / INNISBROOK CRES,,,43.829901,-79.39269,1,,0, ,,1,1
4890,4890,WILLOWBROOK RD / CHARNWOOD PL,,,43.831322,-79.394156,1,,0, ,,1,1
4891,4891,WILLOWBROOK RD / ABRAHAM AV,,,43.831267,-79.397527,1,,0, ,,2,1
4892,4892,WILLOWBROOK RD / TRIMBLE CRT,,,43.830285,-79.398593,1,,0, ,,2,1
4893,4893,WILLOWBROOK RD / BRAEBURN DR,,,43.828782,-79.399409,1,,0, ,,2,1
4894,4894,WILLOWBROOK RD / BRAEBURN DR,,,43.828655,-79.399457,1,,0, ,,1,1
4895,4895,WILLOWBROOK RD / BAYVIEW AV,,,43.828295,-79.402806,1,,0, ,,1,1
4896,4896,ROYAL ORCHARD BLVD / DORAL GATE,,,43.824882,-79.404234,1,,0, ,,1,1
4897,4897,ROYAL ORCHARD BLVD / BLUE SPRUCE LA,ROYAL ORCHARD BLVD & BLUE SPRUCE LANE,,43.824693,-79.406731,1,,0, ,,1,1
4898,4898,ROYAL ORCHARD BLVD / SHADY LANE CRE,ROYAL ORCHARD BLVD & SHADY LANE CRES,,43.824284,-79.409147,1,,0, ,,1,1
4899,4899,ROYAL ORCHARD BLVD / KIRK DR,,,43.824454,-79.412392,1,,0, ,,1,1
4900,4900,ROYAL ORCHARD BLVD / BAY THORN DR,,,43.824205,-79.416819,1,,0, ,,1,1
4901,4901,ROYAL ORCHARD BLVD / WILD CHERRY LA,ROYAL ORCHARD BLVD & WILD CHERRY LANE,,43.823151,-79.421181,1,,0, ,,1,1
4902,4902,ROYAL ORCHARD BLVD / YONGE ST,,,43.823107,-79.424686,1,,0, ,,2,1
4911,4911,JANE ST / AVRO RD,,,43.845353,-79.535935,1,,0, ,,1,1
4913,4913,JANE ST / NORWOOD AV,,,43.843215,-79.53543,1,,0, ,,1,1
4915,4915,YONGE ST STOP # 4915,,,43.78496,-79.416698,1,,0, ,,1,1
4916,4916,YONGE ST / CENTRE AV,,,43.79149,-79.418316,1,,0, ,,1,1
4917,4917,YONGE ST / STEELES AV,,,43.797916,-79.419892,1,,0, ,,1,1
4918,4918,RUTHERFORD RD / VAUGHAN MILLS RD,,,43.813203,-79.616653,1,,0, ,,1,1
4919,4919,GREEN LANE / HUNTINGTON PARK DR,,,43.825962,-79.379693,1,,0, ,,2,1
4934,4934,ELGIN WEST C.C. STOP # 4934,ELGIN WEST COMMUNITY CENTRE,,43.89286,-79.468666,1,,0, ,,1,1
4950,4950,MAJOR MACKENZIE DR / YONGE ST,,,43.871414,-79.436912,1,,0, ,,1,1
4956,4956,MAJOR MACKENZIE DR / OLD 17TH AV,,,43.890625,-79.347426,1,,0, ,,1,1
4984,4984,LANGSTAFF RD / WOODCROFT LANE,,,43.794991,-79.610993,1,,0, ,,1,1
4985,4985,LANGSTAFF RD / VAUGHAN MILLS RD,,,43.795848,-79.606903,1,,0, ,,1,1
4986,4986,KIPLING AV / BEECHNUT RD,,,43.794876,-79.604128,1,,0, ,,1,1
4987,4987,KIPLING AV / HURRICANE AV,,,43.792486,-79.600626,1,,0, ,,1,1
4988,4988,KIPLING AV / MEETING HOUSE RD,,,43.790238,-79.600093,1,,0, ,,1,1
4989,4989,KIPLING AV STOP # 4989,,,43.786854,-79.59928,1,,0, ,,1,1
4990,4990,KIPLING AV / WOODBRIDGE AV,,,43.784188,-79.598661,1,,0, ,,2,1
5022,5022,DAVIS DR / YONGE ST,,,44.054598,-79.48074,1,,0, ,,2,1
5037,5037,WESTON RD / HAWKVIEW BLVD,,,43.828175,-79.556892,1,,0, ,,1,1
5044,5044,ISLINGTON AV STOP # 5044,,,43.824053,-79.608323,1,,0, ,,1,1
5045,5045,MAJOR MACKENZIE DR / OLD MARKHAM RD,,,43.876103,-79.412503,1,,0, ,,1,1
5046,5046,MAJOR MACKENZIE DR / SPADINA RD,,,43.876794,-79.406801,1,,0, ,,1,1
5047,5047,MAJOR MACKENZIE DR / BOAKE TRL,,,43.878096,-79.400789,1,,0, ,,1,1
5048,5048,MAJOR MACKENZIE DR / FORESTWOOD ST,,,43.878923,-79.39694,1,,0, ,,2,1
5049,5049,MAJOR MACKENZIE DR / LESLIE ST,,,43.880199,-79.392005,1,,0, ,,1,1
5050,5050,MAJOR MACKENZIE DR / MARKLAND ST,,,43.884489,-79.373531,1,,0, ,,1,1
5052,5052,MAJOR MACKENZIE DR STOP # 5052,,,43.89339,-79.33719,1,,0, ,,1,1
5055,5055,YONGE ST / PATRICIA AV,YONGE ST & PATRICA AV,,43.790138,-79.417977,1,,0, ,,1,1
5092,5092,YONGE ST / DAVIS DR,,,44.055096,-79.480711,1,,0, ,,1,1
5093,5093,YONGE ST / SILVER MAPLE RD,,,43.929207,-79.451745,1,,0, ,,1,1
5094,5094,YONGE ST STOP # 5094,,,43.901299,-79.444488,1,,0, ,,1,1
5115,5115,HIGHWAY 27 / NICKEL GATE,,,43.788107,-79.625133,1,,0, ,,1,1
5130,5130,BATHURST ST / HEARTHSIDE AV,,,43.909434,-79.473346,1,,0, ,,1,1
5131,5131,BATHURST ST / TOWER HILL RD,,,43.913074,-79.474197,1,,0, ,,1,1
5147,5147,BATHURST ST / AUGUSTINE AV,,,43.935695,-79.480766,1,,0, ,,1,1
5148,5148,BATHURST ST / KINGSHILL RD,,,43.931476,-79.47974,1,,0, ,,1,1
5149,5149,BATHURST ST / HEARTHSIDE AV,,,43.90998,-79.473783,1,,0, ,,2,1
5157,5157,SUMMERIDGE DR / TREECREST DR,,,43.830216,-79.46984,1,,0, ,,1,1
5164,5164,BATHURST ST STOP # 5164,,,43.953387,-79.484461,1,,0, ,,1,1
5168,5168,SUMMERIDGE DR / COUTURE GDNS,,,43.830567,-79.468736,1,,0, ,,1,1
5169,5169,SUMMERIDGE DR / PLEASANT RIDGE AV,,,43.829957,-79.473707,1,,0, ,,2,1
5187,5187,HIGHWAY 27 / ROYALPARK WAY,,,43.806205,-79.628762,1,,0, ,,1,1
5191,5191,HILDA AV / JONATHAN GATE,,,43.803963,-79.435975,1,,0, ,,1,1
5192,5192,HILDA AV / JONATHAN GATE,,,43.803713,-79.435376,1,,0, ,,1,1
5231,5231,BATHURST ST / AUGUSTINE AV,,,43.934876,-79.480246,1,,0, ,,1,1
5234,5234,BAYVIEW AV / WHITELAW CRT,,,43.806439,-79.39832,1,,0, ,,1,1
5235,5235,BAYVIEW AV / FAIRFIELD PL,,,43.806131,-79.397983,1,,0, ,,1,1
5236,5236,BATHURST ST / STOCKDALE CRES,,,43.858969,-79.461102,1,,0, ,,2,1
5258,5258,BATHURST ST STOP # 5258,,,43.953822,-79.484788,1,,0, ,,2,1
5259,5259,BATHURST ST / PUCCINI DR,,,43.941646,-79.482203,1,,0, ,,2,1
5260,5260,MAJOR MACKENZIE DR / MCNAUGHTON RD,,,43.858756,-79.498376,1,,0, ,,1,1
5261,5261,MAJOR MACKENZIE DR / PETER RUPERT A,MAJOR MACKENZIE DR & PETER RUPERT AV,,43.858335,-79.499138,1,,0, ,,1,1
5262,5262,MAJOR MACKENZIE DR / GRAND TRUNK AV,,,43.859507,-79.494105,1,,0, ,,1,1
5265,5265,MARTIN GROVE RD / FINCH AV,,,43.737271,-79.591781,1,,0, ,,1,1
5266,5266,MARTIN GROVE RD / ALBION RD,,,43.74153,-79.593836,1,,0, ,,1,1
5267,5267,MARTIN GROVE RD / GARFELLA DR,,,43.744254,-79.595195,1,,0, ,,1,1
5268,5268,MARTIN GROVE RD / SILVERSTONE DR,,,43.750847,-79.598395,1,,0, ,,1,1
5269,5269,MARTIN GROVE RD / GIHON SPRING DR,,,43.753954,-79.599891,1,,0, ,,1,1
5270,5270,MARTIN GROVE RD / CABERNET CIR,,,43.754169,-79.600281,1,,0, ,,1,1
5277,5277,HIGHWAY 27 / RUTHERFORD RD,,,43.810888,-79.628824,1,,0, ,,1,1
5287,5287,MAJOR MACKENZIE DR / THE BRIDLE WAL,MAJOR MACKENZIE DR & THE BRIDLE WALK,,43.899471,-79.309919,1,,0, ,,2,1
5288,5288,MAJOR MACKENZIE DR / THE BRIDLE WAL,MAJOR MACKENZIE DR & THE BRIDAL WALK,,43.899841,-79.309346,1,,0, ,,2,1
5305,5305,YORKLAND ST / SQUIRE DR,,,43.896475,-79.439356,1,,0, ,,1,1
5310,5310,RUTHERFORD RD / ILAN RAMON BLVD,,,43.846805,-79.462243,1,,0, ,,2,1
5312,5312,CLARK AV STOP # 5312,,,43.802215,-79.454968,1,,0, ,,1,1
5313,5313,CLARK AV STOP # 5313,,,43.802232,-79.454098,1,,0, ,,1,1
5316,5316,YONGE ST / MOORE PARK AV,,,43.793992,-79.419191,1,,0, ,,1,1
5745,5745,DUFFERIN ST / IVY GLEN DR,,,43.854697,-79.48606,1,,0, ,,1,1
5331,5331,GREEN LANE / HUNTINGTON PARK DR,,,43.829421,-79.378479,1,,0, ,,1,1
5332,5332,PROMENADE TERMINAL PLATFORM 3,1 PROMENADE CIR PROMENADE TERMINAL & PLATFORM 3,3,43.809631,-79.453891,1,,0,18,,1,1
5336,5336,WEST PROMENADE / NEW WESTMINSTER DR,,,43.806182,-79.455437,1,,0, ,,1,1
5602,5602,LOCKE ST / CREDITSTONE RD,,,43.82485,-79.524027,1,,0, ,,1,1
5603,5603,LOCKE ST STOP # 5603,,,43.824407,-79.527708,1,,0, ,,2,1
5604,5604,LOCKE ST STOP # 5604,,,43.824416,-79.52714,1,,0, ,,1,1
9753,9753,HWY 7 / MAIN MARKHAM,6001 Highway 7 E HIGHWAY 7 & MAIN ST MARKHAM,,43.873945,-79.259326,1,,0, ,,1,1
9754,9754,HWY 7 / MAIN MARKHAM,HIGHWAY 7 & MAIN ST MARKHAM,,43.873906,-79.260273,1,,0, ,,1,1
9755,9755,HWY 7 / WOOTTEN,6501 Highway 7 E HIGHWAY 7 & WOOTTEN WAY,,43.87771,-79.243483,1,,0, ,,1,1
9756,9756,HWY 7 / WOOTTEN,6500 Highway 7 E HIGHWAY 7 & WOOTTEN WAY,,43.877991,-79.243027,1,,0, ,,1,1
3672,3672,STEELES AV / ISLINGTON AV,,,43.764392,-79.57414,1,,0, ,,1,1
5689,5689,ZENWAY BLVD / VAUGHAN VALLEY BLVD,,,43.776793,-79.626968,1,,0, ,,1,1
5690,5690,VAUGHAN VALLEY BLVD / STONE RIDGE R,VAUGHAN VALLEY BLVD & STONE RIDGE RD,,43.774255,-79.626318,1,,0, ,,1,1
4619,4619,JANE ST / MAJOR MACKENZIE DR,,,43.849698,-79.536896,1,,0, ,,1,1
2941,2941,BRANDON GATE DR / MELVILLE AV,,,43.862855,-79.535406,1,,0, ,,1,1
3027,3027,RUTHERFORD RD / GREENOCK DR,,,43.835411,-79.513541,1,,0, ,,2,1
3028,3028,RUTHERFORD RD / ROTATIONAL DR,,,43.834686,-79.517067,1,,0, ,,1,1
3029,3029,RUTHERFORD RD / MELVILLE AV,,,43.833661,-79.521677,1,,0, ,,1,1
3060,3060,RUTHERFORD RD / ROTATIONAL DR,,,43.834339,-79.517633,1,,0, ,,1,1
3061,3061,RUTHERFORD RD / GREENOCK DR,,,43.83509,-79.51401,1,,0, ,,2,1
3062,3062,RUTHERFORD RD / KEELE ST,,,43.836217,-79.50858,1,,0, ,,2,1
3936,3936,KEELE ST / MAJOR MACKENZIE DR,,,43.855387,-79.512368,1,,0, ,,1,1
3937,3937,KEELE ST / RAILWAY ST,,,43.856528,-79.512681,1,,0, ,,1,1
3938,3938,KEELE ST / MASTERS AV,,,43.858642,-79.513123,1,,0, ,,1,1
3939,3939,KEELE ST / MCNAUGHTON RD,,,43.860795,-79.513636,1,,0, ,,1,1
3941,3941,KEELE ST / DRUMMOND DR,,,43.867317,-79.515086,1,,0, ,,1,1
3958,3958,KEELE ST STOP # 3958,,,43.8644,-79.514639,1,,0, ,,1,1
3959,3959,KEELE ST / MCNAUGHTON RD,,,43.861251,-79.51395,1,,0, ,,1,1
3961,3961,KEELE ST / MASTERS AV,,,43.859086,-79.51343,1,,0, ,,1,1
3962,3962,KEELE ST / KILLIAN RD,,,43.856885,-79.512939,1,,0, ,,2,1
3963,3963,KEELE ST / MAJOR MACKENZIE DR,,,43.855097,-79.512547,1,,0, ,,1,1
3974,3974,JOHN DEISMAN BLVD / AMERICA AV,,,43.858275,-79.548354,1,,0, ,,1,1
3975,3975,AMERICA AV / TREASURE RD,,,43.85973,-79.546471,1,,0, ,,1,1
3976,3976,AMERICA AV / DISCOVERY TRL,,,43.86142,-79.543865,1,,0, ,,1,1
3977,3977,AMERICA AV / JANE ST,,,43.862437,-79.540371,1,,0, ,,1,1
5480,5480,BOX GROVE BYPASS STOP # 5480,BOX GROVE BYPASS & COPPER CREEK DR,,43.865957,-79.230636,1,,0, ,,1,1
5482,5482,14TH AV / RIVERWALK DR,,,43.861204,-79.222541,1,,0, ,,2,1
5550,5550,ROUGE BANK DR / NINTH LINE,,,43.863808,-79.23145,1,,0, ,,1,1
5837,5837,MAJOR MACKENZIE DR / MCCOWAN RD,,,43.903405,-79.294167,1,,0, ,,2,1
5844,5844,RUTHERFORD RD / NAPA VALLEY AV,,,43.81353,-79.616104,1,,0, ,,1,1
5309,5309,NASHVILLE RD / HIGHWAY 27,,,43.843592,-79.633289,1,,0, ,,1,1
5314,5314,YONGE ST / STEELES AV,,,43.797434,-79.420037,1,,0, ,,1,1
5315,5315,YONGE ST / ABITIBI AV,,,43.796088,-79.419718,1,,0, ,,1,1
5317,5317,YONGE ST / CONNAUGHT AV,,,43.789452,-79.418069,1,,0, ,,1,1
5318,5318,YONGE ST / DREWRY AV,,,43.7872,-79.417496,1,,0, ,,1,1
5330,5330,WILLOWBROOK RD / BAYVIEW AV,,,43.828204,-79.40266,1,,0, ,,1,1
5337,5337,THORNHILL C.C. STOP # 5337,THORNHILL COMMUNITY CENTRE,,43.819746,-79.400847,1,,0, ,,1,1
5468,5468,BATHURST ST / JEFFERSON SDRD,,,43.916746,-79.475123,1,,0, ,,1,1
5469,5469,BATHURST ST / KING VAUGHAN RD,,,43.921082,-79.476895,1,,0, ,,1,1
5601,5601,LOCKE ST / CREDITSTONE RD,,,43.825019,-79.524305,1,,0, ,,2,1
5616,5616,BATHURST ST / TOWER HILL DR,BATHURST ST & TOWER HILL RD,,43.913471,-79.47463,1,,0, ,,1,1
5617,5617,BATHURST ST / JEFFERSON SDRD,,,43.917178,-79.47553,1,,0, ,,1,1
5481,5481,BOX GROVE BYP / RIZAL AV,,,43.86252,-79.2252,1,,0, ,,1,1
5495,5495,HAZELTON AV / VINE CLIFF BLVD,,,43.894185,-79.366251,1,,0, ,,1,1
1001,1001,RED MAPLE RD / ONEIDA CRES,,,43.843914,-79.424129,1,,0, ,,1,1
1002,1002,RED MAPLE RD / BANTRY AV,,,43.845371,-79.42455,1,,0, ,,1,1
1003,1003,LESLIE ST / COMMERCE VALLEY DR,,,43.840048,-79.380956,1,,0, ,,1,1
1004,1004,RED MAPLE RD / SILVER LINDEN DR,,,43.848433,-79.426378,1,,0, ,,1,1
1005,1005,LESLIE ST / MINTHORN BLVD,,,43.841807,-79.381461,1,,0, ,,1,1
1006,1006,RED MAPLE RD / MACGREGOR AV,,,43.847594,-79.426164,1,,0, ,,1,1
1007,1007,LESLIE ST / HIGHWAY 7,,,43.844139,-79.381944,1,,0, ,,1,1
1008,1008,RED MAPLE RD / BANTRY AV,,,43.84581,-79.424851,1,,0, ,,1,1
1009,1009,COMMERCE VALLEY DR / MINTHORN BLVD,,,43.843611,-79.376898,1,,0, ,,1,1
1010,1010,RED MAPLE RD / ONEIDA CRES,,,43.843877,-79.424281,1,,0, ,,1,1
1011,1011,COMMERCE VALLEY DR STOP # 1011,,,43.841872,-79.375301,1,,0, ,,1,1
1012,1012,RED MAPLE RD / HIGH TECH RD,,,43.842359,-79.423529,1,,0, ,,1,1
1013,1013,COMMERCE VALLEY DR STOP # 1013,,,43.840397,-79.376974,1,,0, ,,1,1
1014,1014,COMMERCE VALLEY DR STOP # 1014,,,43.839784,-79.378873,1,,0, ,,1,1
1016,1016,COMMERCE VALLEY DR / LESLIE ST,,,43.839414,-79.381612,1,,0, ,,1,1
1018,1018,COMMERCE VALLEY DR / SOUTH PARK RD,,,43.840189,-79.383285,1,,0, ,,1,1
1020,1020,SOUTH PARK RD / COMMERCE VALLEY DR,,,43.840137,-79.383881,1,,0, ,,2,1
1022,1022,SOUTH PARK RD / POND DR,,,43.839276,-79.38645,1,,0, ,,1,1
1024,1024,SOUTH PARK RD / PARK COMMON BLVD,,,43.838226,-79.388521,1,,0, ,,1,1
1026,1026,SOUTH PARK RD STOP # 1026,SOUTH PARK RD STOP # 1026 & TIMES AV,,43.838584,-79.390983,1,,0, ,,1,1
1028,1028,TIMES AV / GALLERIA PKWY,,,43.839852,-79.391724,1,,0, ,,1,1
1029,1029,HIGH TECH RD / RED MAPLE RD,,,43.841807,-79.423364,1,,0, ,,1,1
1030,1030,TIMES AV / HIGHWAY 7,,,43.84196,-79.391539,1,,0, ,,2,1
1031,1031,DONCASTER AV STOP # 1031,,,43.802629,-79.417982,1,,0, ,,1,1
1032,1032,VALLEYMEDE DR / SAMANTHA CIR,,,43.843585,-79.392126,1,,0, ,,1,1
1033,1033,DONCASTER AV STOP # 1033,DONCASTER AV STOP #1033,,43.804078,-79.415599,1,,0, ,,1,1
1034,1034,VALLEYMEDE DR / RED OAK DR,,,43.845719,-79.393014,1,,0, ,,1,1
1035,1035,DONCASTER AV STOP # 1035,,,43.804592,-79.413948,1,,0, ,,1,1
1036,1036,VALLEYMEDE DR / LEICESTER RD,,,43.845538,-79.396029,1,,0, ,,1,1
1037,1037,DONCASTER AV STOP # 1037,,,43.805334,-79.411505,1,,0, ,,1,1
1038,1038,VALLEYMEDE DR / CHALMERS RD,,,43.845645,-79.398935,1,,0, ,,2,1
1039,1039,DONCASTER AV / HENDERSON AV,,,43.806107,-79.409164,1,,0, ,,1,1
1040,1040,VALLEYMEDE DR / HAZELMERE DR,,,43.847533,-79.399896,1,,0, ,,1,1
1041,1041,HENDERSON AV / PROCTOR AV,,,43.807414,-79.409195,1,,0, ,,1,1
1042,1042,VALLEYMEDE DR / BRIGGS AV,,,43.849594,-79.400872,1,,0, ,,1,1
1043,1043,HENDERSON AV / CLARK AV,,,43.809711,-79.41017,1,,0, ,,1,1
1044,1044,VALLEYMEDE DR / BLACKMORE AV,,,43.852846,-79.401417,1,,0, ,,1,1
1045,1045,HENDERSON AV / ELGIN ST,,,43.813968,-79.410333,1,,0, ,,2,1
1046,1046,VALLEYMEDE DR / SHEILA CRES,,,43.854758,-79.40138,1,,0, ,,2,1
1047,1047,HENDERSON AV / JOHN ST,,,43.815862,-79.411054,1,,0, ,,1,1
1048,1048,VALLEYMEDE DR / STRATHEARN AV,,,43.856093,-79.401257,1,,0, ,,1,1
1049,1049,JOHN ST / CANDICE GATE,,,43.818127,-79.403582,1,,0, ,,1,1
1050,1050,VALLEYMEDE DR STOP # 1050,,,43.857242,-79.39877,1,,0, ,,1,1
1051,1051,JOHN ST / BAYVIEW AV,,,43.818698,-79.399974,1,,0, ,,2,1
1052,1052,VALLEYMEDE DR / MEADOWCLIFFE AV,,,43.85871,-79.395589,1,,0, ,,2,1
1053,1053,JOHN ST / PORTERFIELD CRES,,,43.819085,-79.398076,1,,0, ,,1,1
1054,1054,VALLEYMEDE DR / 16TH AV,,,43.860189,-79.395887,1,,0, ,,1,1
1055,1055,JOHN ST STOP # 1055,,,43.820053,-79.392546,1,,0, ,,1,1
1056,1056,SPADINA RD / BOAKE TRL,,,43.863827,-79.398737,1,,0, ,,1,1
1057,1057,JOHN ST / AILEEN RD,,,43.820321,-79.388203,1,,0, ,,2,1
1058,1058,SPADINA RD / LYTTON BLVD,,,43.866207,-79.40031,1,,0, ,,1,1
1059,1059,JOHN ST / BAYVIEW FAIRWAYS DR,,,43.819883,-79.384522,1,,0, ,,2,1
1060,1060,SPADINA RD / BROOKSHILL CRES,,,43.86966,-79.40094,1,,0, ,,1,1
1061,1061,JOHN ST / DAWN HILL TRL,,,43.820266,-79.381479,1,,0, ,,1,1
1062,1062,SPADINA RD / WELDRICK RD,,,43.871023,-79.401671,1,,0, ,,1,1
1063,1063,SPADINA RD / STRATHEARN AV,,,43.874286,-79.404466,1,,0, ,,2,1
1064,1064,JOHN ST / COTTONWOOD CRT,,,43.820479,-79.379687,1,,0, ,,1,1
1065,1065,SPADINA RD / CRESCENTVIEW RD,,,43.87612,-79.40598,1,,0, ,,1,1
1066,1066,JOHN ST / CHESTNUT GATE,,,43.820718,-79.377729,1,,0, ,,1,1
1067,1067,FRANK ENDEAN RD / FARMSTEAD RD,,,43.881204,-79.408032,1,,0, ,,1,1
1068,1068,JOHN ST / ROCKINGHAM CRT,,,43.82164,-79.372834,1,,0, ,,1,1
1069,1069,FARMSTEAD RD / KIMONO CR,143 FARMSTEAD RD & KIMONO CR,,43.88132,-79.40606,1,,0, ,,1,1
1070,1070,JOHN ST / DON MILLS RD,,,43.822161,-79.370339,1,,0, ,,1,1
1071,1071,FARMSTEAD RD / SHIRLEY DR,,,43.881625,-79.401875,1,,0, ,,1,1
1072,1072,JOHN ST STOP # 1072,,,43.82293,-79.367144,1,,0, ,,1,1
1073,1073,SHIRLEY DR / BAYFIELD DR,,,43.883507,-79.402674,1,,0, ,,1,1
1074,1074,JOHN ST / STEELCASE RD,,,43.824725,-79.359188,1,,0, ,,1,1
1075,1075,SHIRLEY DR / FUTURA AV,,,43.885269,-79.405608,1,,0, ,,1,1
1076,1076,JOHN ST STOP # 1076,JOHN ST STOP #1076,,43.825027,-79.353485,1,,0, ,,1,1
1077,1077,SHIRLEY DR / REDSTONE RD,,,43.887483,-79.407597,1,,0, ,,1,1
1078,1078,JOHN ST / WOODBINE AV,,,43.825141,-79.351947,1,,0, ,,1,1
1079,1079,SHIRLEY DR / VENTURE AV,,,43.889918,-79.408924,1,,0, ,,1,1
1080,1080,ESNA PARK DR STOP # 1080,,,43.825845,-79.348855,1,,0, ,,2,1
1081,1081,SHIRLEY DR / ROMANCE DR,,,43.891862,-79.412219,1,,0, ,,2,1
1082,1082,ESNA PARK DR STOP # 1082,,,43.82701,-79.345585,1,,0, ,,1,1
1083,1083,SHIRLEY DR / ELGIN MILLS RD,,,43.894178,-79.412762,1,,0, ,,2,1
1084,1084,ESNA PARK DR STOP # 1084,,,43.827535,-79.343335,1,,0, ,,1,1
1085,1085,ELGIN MILLS RD / MELBOURNE DR,,,43.895231,-79.409658,1,,0, ,,1,1
1086,1086,ESNA PARK DR / ALDEN RD,,,43.827824,-79.341632,1,,0, ,,2,1
1087,1087,ELGIN MILLS RD / GOODE ST,,,43.896339,-79.404685,1,,0, ,,1,1
1088,1088,ESNA PARK DR / ALDEN RD,,,43.827477,-79.34029,1,,0, ,,1,1
1089,1089,ELGIN MILLS RD / REDSTONE RD,,,43.897093,-79.401084,1,,0, ,,1,1
1090,1090,ESNA PARK DR STOP # 1090,,,43.826468,-79.338844,1,,0, ,,1,1
1091,1091,ELGIN MILLS RD / LESLIE ST,,,43.898254,-79.396437,1,,0, ,,1,1
1092,1092,DENISON ST STOP # 1092,,,43.82551,-79.33477,1,,0, ,,1,1
1093,1093,ELGIN MILLS RD / LESLIE ST,,,43.898337,-79.39687,1,,0, ,,1,1
1094,1094,DENISON ST STOP # 1094,,,43.826439,-79.330732,1,,0, ,,2,1
1095,1095,ELGIN MILLS RD / GOODE ST,,,43.896664,-79.404176,1,,0, ,,2,1
1096,1096,DENISON ST / HOOD RD,,,43.826968,-79.328298,1,,0, ,,1,1
1097,1097,ELGIN MILLS RD / MELBOURNE DR,,,43.895542,-79.409193,1,,0, ,,1,1
1098,1098,DENISON ST / WARDEN AV,,,43.827289,-79.327003,1,,0, ,,1,1
1099,1099,ELGIN MILLS RD / SHIRLEY DR,,,43.894768,-79.412728,1,,0, ,,1,1
1100,1100,DENISON ST STOP # 1100,,,43.830728,-79.322688,1,,0, ,,1,1
1102,1102,DENISON ST / BIRCHMOUNT RD,,,43.832678,-79.319121,1,,0, ,,1,1
1104,1104,DENISON ST STOP # 1104,,,43.833666,-79.316252,1,,0, ,,2,1
1106,1106,DENISON ST / CLAYTON DR,,,43.83418,-79.313966,1,,0, ,,1,1
1108,1108,DENISON ST / GORVETTE RD,,,43.83483,-79.308624,1,,0, ,,1,1
1109,1109,SHIRLEY DR / WAYSIDE AV,,,43.885052,-79.405279,1,,0, ,,1,1
1110,1110,DENISON ST / KENNEDY RD,,,43.834472,-79.304755,1,,0, ,,2,1
1111,1111,DENISON ST STOP # 1111,,,43.833893,-79.301387,1,,0, ,,1,1
1112,1112,SHIRLEY DR / BAYFIELD DR,,,43.883652,-79.402931,1,,0, ,,1,1
1113,1113,DENISON ST / TEDDINGTON AV,,,43.834085,-79.299357,1,,0, ,,1,1
1114,1114,FARMSTEAD RD / SHIRLEY DR,,,43.881646,-79.402256,1,,0, ,,1,1
1115,1115,DENISON ST STOP # 1115,,,43.834433,-79.296534,1,,0, ,,2,1
1116,1116,FARMSTEAD RD / SHELL CRT,,,43.881298,-79.404775,1,,0, ,,1,1
1117,1117,DENISON ST / ALDERGROVE DR,,,43.835671,-79.293475,1,,0, ,,1,1
1118,1118,FARMSTEAD RD / FRANK ENDEAN RD,,,43.881372,-79.407927,1,,0, ,,1,1
1119,1119,DENISON ST / BRIMLEY RD,,,43.83652,-79.289995,1,,0, ,,1,1
1121,1121,DENISON ST / CARTMEL DR,,,43.836917,-79.288172,1,,0, ,,1,1
1123,1123,DENISON ST STOP # 1123,DENISON ST STOP # 1125,,43.837716,-79.285556,1,,0, ,,1,1
1125,1125,DENISON ST / HILLCROFT DR,,,43.839053,-79.283669,1,,0, ,,1,1
1126,1126,CENTRE ST / BEAVERTON RD,,,43.878696,-79.421499,1,,0, ,,2,1
1127,1127,DENISON ST / TOWNLEY AV,,,43.840837,-79.280926,1,,0, ,,1,1
1130,1130,CENTRE ST / BEAVERTON RD,,,43.878546,-79.421787,1,,0, ,,1,1
1136,1136,FRANK ENDEAN RD / CASSATA AV,,,43.87882,-79.407255,1,,0, ,,1,1
1138,1138,FRANK ENDEAN RD / MAJOR MACKENZIE D,FRANK ENDEAN RD & MAJOR MACKENZIE DR,,43.877228,-79.406692,1,,0, ,,1,1
1140,1140,SPADINA RD / STRATHEARN AV,,,43.874521,-79.404697,1,,0, ,,1,1
1142,1142,SPADINA RD / WELDRICK RD,,,43.871358,-79.402128,1,,0, ,,1,1
1144,1144,SPADINA RD / BROOKSHILL CRES,,,43.869392,-79.401045,1,,0, ,,1,1
1146,1146,SPADINA RD / MARLBOROUGH ST,,,43.866438,-79.400527,1,,0, ,,1,1
1148,1148,SPADINA RD / BOAKE TRL,,,43.863944,-79.399034,1,,0, ,,1,1
1150,1150,SPADINA RD / 16TH AV,,,43.860519,-79.396246,1,,0, ,,1,1
1152,1152,FOOD BASICS STOP # 1152,FOOD BASICS STOP # 1152 & CASSATA AV,,43.877827,-79.410471,1,,0, ,,1,1
1154,1154,FOOD BASICS STOP # 1154,FOOD BASICS STOP # 1154 & CASSATA AV,,43.877656,-79.410404,1,,0, ,,1,1
1156,1156,VALLEYMEDE DR / HORIZON CRT,,,43.858952,-79.395704,1,,0, ,,1,1
1158,1158,VALLEYMEDE DR STOP # 1158,,,43.857362,-79.398645,1,,0, ,,2,1
1160,1160,VALLEYMEDE DR / STRATHEARN AV,,,43.856403,-79.401239,1,,0, ,,1,1
1162,1162,VALLEYMEDE DR / EMMANUEL DR,,,43.854963,-79.401484,1,,0, ,,2,1
1164,1164,VALLEYMEDE DR / BLACKMORE AV,,,43.853404,-79.401592,1,,0, ,,1,1
1166,1166,VALLEYMEDE DR / BRIGGS AV,,,43.849848,-79.401193,1,,0, ,,1,1
1168,1168,VALLEYMEDE DR / QUEENS COLLEGE DR,,,43.847745,-79.400187,1,,0, ,,1,1
1170,1170,VALLEYMEDE DR / CHALMERS RD,,,43.8458,-79.399216,1,,0, ,,2,1
1172,1172,VALLEYMEDE DR / LEICESTER RD,,,43.845397,-79.396302,1,,0, ,,2,1
1174,1174,VALLEYMEDE DR / RED OAK DR,,,43.845747,-79.393373,1,,0, ,,2,1
1176,1176,VALLEYMEDE DR / LEICESTER RD,,,43.844199,-79.392381,1,,0, ,,2,1
1180,1180,TIMES AV / GALLERIA PKWY,TIMES AVE & GALLERIA PKWAY,,43.840135,-79.391904,1,,0, ,,2,1
1184,1184,SOUTH PARK RD / PARK COMMON BLVD,,,43.838129,-79.388262,1,,0, ,,1,1
1186,1186,SOUTH PARK RD / POND DR,,,43.838841,-79.386521,1,,0, ,,1,1
1188,1188,SOUTH PARK RD / COMMERCE VALLEY DR,,,43.840264,-79.384056,1,,0, ,,2,1
