stop_lon,stop_timezone,stop_name,stop_id,parent_station,wheelchair_boarding,zone_id,stop_code,location_type,stop_url,preferred,stop_lat,stop_desc
-78.94155897953233,,Garden Northbound @ Bassett (South stop),10,,1,,10,0,,2,43.90333273838791,
-78.961715,,McQuay Northbound @ Dundas,100,,1,,100,0,,2,43.87593224,
-78.855412,,Glen Northbound @ Medina,1000,,1,,1000,0,,2,43.87268331,
-78.856489,,Northbound @ 825 Glen,1001,,1,,1001,0,,2,43.87529628,
-78.858799,,Malaga Westbound @ Oxford,1002,,1,,1002,0,,2,43.875507,
-78.862502,,Malaga Westbound @ Park,1003,,1,,1003,0,,1,43.874698,
-78.96314599999998,,McQuay Northbound @ Moonstone,101,,1,,101,0,,2,43.878431,
-78.863301,,Malaga Eastbound @ Park,1014,,1,,1014,0,,2,43.87443,
-78.86054799999998,,Malaga Eastbound @ Oxford (West side stop),1015,,1,,1015,0,,2,43.875032,
-78.857982,,Malaga Eastbound @ Oxford (East side stop),1016,,1,,1016,0,,2,43.875586,
-78.85656,,Southbound @ 830 Glen,1017,,1,,1017,0,,2,43.87507063000001,
-78.855636,,Glen Southbound @ Medina,1018,,1,,1018,0,,2,43.87281378,
-78.854967,,Glen Southbound @ Porter,1019,,1,,1019,0,,2,43.871258,
-78.965224,,McQuay Northbound @ Kennett,102,,1,,102,0,,2,43.879593,
-78.84718,,Wentworth Eastbound @ Ravine,1020,,1,,1020,0,,2,43.87253,
-78.841181,,Simcoe Southbound @ Ritson,1023,,1,,1023,0,,2,43.872059,
-78.8386,,Simcoe Southbound @ Wellington,1024,,1,,1024,0,,2,43.870666,
-78.835431,,Simcoe Southbound @ Kawartha,1025,,1,,1025,0,,2,43.86897900000001,
-78.82959099999998,,Westbound @ 60 Lakeview Park,1027,,1,,1027,0,,2,43.863287,
-78.836721,,Lakeview Park Westbound @ Ritson,1029,,1,,1029,0,,2,43.861379,
-78.966408,,McQuay Northbound @ Balsdon,103,,1,,103,0,,2,43.881326,
-78.83846,,Valley Westbound @ Ritson,1030,,1,,1030,0,,2,43.86425,
-78.84441,,Phillip Murray Southbound @ Scugog,1032,,1,,1032,0,,2,43.86300700000001,
-78.84781779532226,,Cedar Northbound @ Phillip Murray,1033,,1,,1033,0,,2,43.86144322995122,
-78.9673866,,McQuay Northbound @ Bonacord,104,,1,,104,0,,2,43.8836627,
-78.899322,,Eastbound @ 1733 Victoria,1052,,1,,1052,0,,1,43.867405,
-78.8787787,,Eastbound @ 555 Bloor,1053,,1,,1053,0,,2,43.8748675,
-78.864296,,Eastbound @ 249 Bloor,1055,,1,,1055,0,,2,43.878406,
-78.860118,,Bloor Eastbound @ Oxford,1056,,1,,1056,0,,2,43.879381,
-78.856285,,Bloor Eastbound @ Simcoe,1057,,1,,1057,0,,2,43.880241,
-78.853414,,Bloor Eastbound @ Albert,1058,,1,,1058,0,,2,43.880885,
-78.8499396,,Bloor Eastbound @ Merritt,1059,,1,,1059,0,,2,43.8816337,
-78.969264,,McQuay Northbound @ Renfield,106,,1,,106,0,,2,43.888336,
-78.819826,,Eastbound @ 887 Bloor,1066,,1,,1066,0,,2,43.888433,
-78.813063,,Grandview Southbound @ Bloor (South side stop),1067,,1,,1067,0,,2,43.889648,
-78.810582,,Grandview Southbound @ Downview,1068,,1,,1068,0,,2,43.88767,
-78.8095866,,Grandview Southbound @ Norman,1069,,1,,1069,0,,2,43.88659650000001,
-78.97109399999998,,McQuay Northbound @ Jacob,107,,1,,107,0,,2,43.89000200000001,
-78.806985,,Grandview Eastbound @ Southdown,1070,,1,,1070,0,,2,43.886499,
-78.80497908,,Townline Northbound @ Grandview,1071,,1,,1071,0,,2,43.88752003,
-78.97463999999998,,McQuay Westbound @ Muir,108,,1,,108,0,,2,43.889791,
-78.820015,,Westbound @ 882 Bloor,1080,,1,,1080,0,,2,43.888469,
-78.85046,,Bloor Westbound @ Merritt,1088,,1,,1088,0,,2,43.881681,
-78.855267,,Bloor Westbound @ Simcoe,1089,,1,,1089,0,,2,43.880638,
-78.86027799999998,,Bloor Westbound @ Oxford,1090,,1,,1090,0,,2,43.8794327,
-78.864334,,Bloor Westbound @ Park,1091,,1,,1091,0,,2,43.878553,
-78.845479,,Simcoe Northbound @ Wentworth,1096,,1,,1096,0,,2,43.874477,
-78.848778,,Simcoe Northbound @ Wolfe,1097,,1,,1097,0,,2,43.876246,
-78.939531,,Garden Northbound @ Rossland (Durham Region Headquarters),11,,1,,11,0,,2,43.898916,
-78.965943,,Country Lane Northbound @ Rossland,110,,1,,110,0,,2,43.894933,
-78.807633,,Eastbound @ 1189 Colonel Sam,1101,,1,,1101,0,,2,43.878222,
-78.83069399999998,,Farewell Southbound @ Bloor,1118,,1,,1118,0,,2,43.884732,
-78.829233,,Farewell Southbound @ Raleigh,1119,,1,,1119,0,,1,43.881319,
-78.8286811,,Farewell Southbound @ Wentworth,1120,,1,,1120,0,,2,43.8799536,
-78.869767,,Park Northbound @ Quebec,1132,,1,,1132,0,,2,43.887357,
-78.81421,,King Westbound @ Townline,1133,,1,,1133,0,,1,43.90656,
-78.81885294411558,,King Westbound @ Athabasca,1134,,1,,1134,0,,2,43.90616199565833,
-78.821771,,King Westbound @ Kingsway College,1135,,1,,1135,0,,2,43.905816,
-78.827635,,King Westbound @ Keewatin,1136,,1,,1136,0,,2,43.90592800000001,
-78.834293,,Harmony Northbound @ King,1138,,1,,1138,0,,1,43.905084,
-78.835475,,Harmony Northbound @ Regent,1139,,1,,1139,0,,2,43.907681,
-78.966829,,Country Lane Northbound @ Wetherburn,114,,1,,114,0,,2,43.896118,
-78.836021,,Harmony Northbound @ Eastbourne,1140,,1,,1140,0,,2,43.908962,
-78.837306,,Harmony Northbound @ Adelaide,1141,,1,,1141,0,,1,43.91195900000001,
-78.839598,,Northbound @ 443 Harmony,1142,,1,,1142,0,,2,43.917231,
-78.84678599999998,,Harmony Northbound @ Swiss,1143,,1,,1143,0,,2,43.933475,
-78.847728,,Harmony Northbound @ Grand Ridge,1144,,1,,1144,0,,2,43.935668,
-78.83798,,Harmony Southbound @ Adelaide,1145,,1,,1145,0,,1,43.91292,
-78.836235,,Harmony Southbound @ Eastbourne,1146,,1,,1146,0,,2,43.90900100000001,
-78.835614,,Harmony Southbound @ Regent,1147,,1,,1147,0,,2,43.907603,
-78.83438599999998,,Harmony Southbound @ King,1148,,1,,1148,0,,1,43.904711,
-78.833634,,Harmony Southbound @ Palace,1149,,1,,1149,0,,2,43.90330500000001,
-78.969667,,Country Lane Northbound @ Gartshore,115,,1,,115,0,,2,43.898544,
-78.83266999999998,,Harmony Southbound @ Hoskin,1150,,1,,1150,0,,2,43.901176,
-78.831854,,Southbound @ 188 Harmony,1151,,1,,1151,0,,2,43.899357,
-78.830782,,Harmony Southbound @ Florell,1152,,1,,1152,0,,2,43.896955,
-78.830938,,Harmony Northbound @ Old Harmony,1153,,1,,1153,0,,2,43.89775,
-78.831838,,Harmony Northbound @ Hoskin,1154,,1,,1154,0,,2,43.899752,
-78.833706,,Harmony Northbound @ Palace,1155,,1,,1155,0,,2,43.90378813,
-78.835009,,King Westbound @ Harmony,1156,,1,,1156,0,,1,43.90424800000001,
-78.837534,,Bond Northbound @ Riverside,1157,,1,,1157,0,,2,43.90426723,
-78.844005,,Bond Westbound @ Claymore (West side stop),1159,,1,,1159,0,,1,43.904135,
-78.970374,,Country Lane Northbound @ Randolph,116,,1,,116,0,,2,43.900852,
-78.84988199999998,,Bond Westbound @ Patricia,1161,,1,,1161,0,,2,43.902664,
-78.855176,,Bond Westbound @ Ritson,1163,,1,,1163,0,,1,43.900548,
-78.86069,,Bond Westbound @ Mary,1164,,1,,1164,0,,2,43.899252,
-78.8638232,,Bond Westbound @ Simcoe,1165,,1,,1165,0,,1,43.89857640000001,
-78.86599339999998,,Bond Westbound @ Centre,1166,,1,,1166,0,,1,43.8980427,
-78.8700233,,Bond Westbound @ Arena,1167,,1,,1167,0,,2,43.8971812,
-78.87463099999998,,Bond Westbound @ Park,1169,,1,,1169,0,,1,43.896215,
-78.9716001,,Country Lane Northbound @ Twin Streams,117,,1,,117,0,,2,43.9031059,
-78.878156,,Bond Westbound @ Gibbons,1171,,1,,1171,0,,2,43.895268,
-78.884232,,Bond Westbound @ Stevenson,1172,,1,,1172,0,,1,43.89388328,
-78.888154,,King Westbound @ Waverly,1173,,1,,1173,0,,2,43.892156,
-78.894721,,King Westbound @ Thornton,1174,,1,,1174,0,,1,43.89066900000001,
-78.8920772,,King Eastbound @ Thornton,1175,,1,,1175,0,,1,43.8910876,
-78.88811099999998,,King Eastbound @ Waverly,1176,,1,,1176,0,,2,43.891958,
-78.88199,,King Eastbound @ Stevenson,1177,,1,,1177,0,,1,43.89334800000001,
-78.8787275,,King Eastbound @ Gibbons,1178,,1,,1178,0,,2,43.89406180000001,
-78.973335,,Country Lane Northbound @ Medland,118,,1,,118,0,,2,43.907044,
-78.872558,,King Eastbound @ Warren,1181,,1,,1181,0,,1,43.895479,
-78.868644,,King Eastbound @ Midtown,1183,,1,,1183,0,,2,43.896359,
-78.860061,,King Eastbound @ Mary,1185,,1,,1185,0,,2,43.898339,
-78.856595,,King Eastbound @ Drew,1186,,1,,1186,0,,2,43.899141,
-78.853177,,King Eastbound @ Rowe,1187,,1,,1187,0,,1,43.89992500000001,
-78.848573,,King Eastbound @ Central Park,1188,,1,,1188,0,,2,43.901002,
-78.9766051,,Country Lane Northbound @ Taunton,119,,1,,119,0,,2,43.9105664,
-78.843385,,King Eastbound @ Wilson,1190,,1,,1190,0,,1,43.902215,
-78.83979031,,King Eastbound @ Farewell,1192,,1,,1192,0,,2,43.90308117761166,
-78.837145,,King Eastbound @ Riverside,1193,,1,,1193,0,,2,43.90361,
-78.834637,,King Eastbound @ Harmony,1194,,1,,1194,0,,2,43.904153,
-78.82687,,King Eastbound @ Keewatin,1196,,1,,1196,0,,2,43.905856,
-78.820278,,King Eastbound @ Rockcliffe,1198,,1,,1198,0,,2,43.905817,
-78.81680498649324,,King Eastbound @ Eastlawn,1199,,1,,1199,0,,2,43.90618799574203,
-78.940766,,Northbound @ 3093 Garden,12,,1,,12,0,,2,43.901464,
-78.813775,,King Eastbound @ Townline,1200,,1,,1200,0,,1,43.906406,
-78.778936,,Courtice Southbound @ Moyse (Courtice Community Complex),1217,,1,,1217,0,,1,43.914105,
-78.779235,,Highway 2 Westbound @ Courtice,1218,,1,,1218,0,,1,43.911594,
-78.788115,,Highway 2 Westbound @ Trulls,1219,,1,,1219,0,,1,43.911048,
-78.79601,,Highway 2 Westbound @ Sandringham,1220,,1,,1220,0,,2,43.909174,
-78.797674,,Highway 2 Westbound @ Prestonvale,1221,,1,,1221,0,,1,43.908585,
-78.803571,,Highway 2 Westbound @ Centerfield,1222,,1,,1222,0,,1,43.90764200000001,
-78.807587,,Highway 2 Westbound @ Varcoe,1223,,1,,1223,0,,2,43.907163,
-78.808273,,Highway 2 Eastbound @ Darlington Boulevard,1224,,1,,1224,0,,2,43.906907,
-78.803827,,Highway 2 Eastbound @ Old Kingston,1225,,1,,1225,0,,1,43.907393,
-78.777544,,Courtice Southbound @ Highway 2,1226,,1,,1226,0,,2,43.910864,
-78.778369,,Sandringham Westbound @ Short,1227,,1,,1227,0,,2,43.909137,
-78.779807,,Avondale Southbound @ Stagemaster,1228,,1,,1228,0,,2,43.907937,
-78.780964,,Avondale Southbound @ Brownstone,1229,,1,,1229,0,,2,43.90579242,
-78.781861,,Avondale Southbound @ Farmington,1230,,1,,1230,0,,2,43.904046,
-78.784876,,Trulls Northbound @ Avondale,1231,,1,,1231,0,,2,43.903403,
-78.785437,,Northbound @ 2501 Trulls,1232,,1,,1232,0,,2,43.90456300000001,
-78.78781669999998,,Sandringham Westbound @ Bushford,1233,,1,,1233,0,,2,43.9059139,
-78.790682,,Sandringham Westbound @ Yorkville,1234,,1,,1234,0,,2,43.90300993000001,
-78.863176,,King Eastbound @ Simcoe,1242,,1,,1242,0,,1,43.89762300000001,
-78.797456,,Highway 2 Eastbound @ Prestonvale,1244,,1,,1244,0,,1,43.908429,
-78.787906,,Highway 2 Eastbound @ Trulls,1245,,1,,1245,0,,1,43.910829,
-78.96736199999998,,Taunton Eastbound @ Cochrane,125,,1,,125,0,,2,43.912852,
-78.821096,,Olive Westbound @ Viewmount,1252,,1,,1252,0,,2,43.896941,
-78.82724399999998,,Olive Westbound @ Florell,1255,,1,,1255,0,,2,43.89598841,
-78.83126799999998,,Olive Westbound @ Elmridge,1257,,1,,1257,0,,1,43.89510700000001,
-78.834343,,Olive Westbound @ Poplar,1258,,1,,1258,0,,2,43.894441,
-78.836928,,Olive Westbound @ Baldwin,1259,,1,,1259,0,,2,43.89386600000001,
-78.839031,,Olive Westbound @ Wilson,1260,,1,,1260,0,,2,43.893383,
-78.841487,,Olive Westbound @ Highland,1261,,1,,1261,0,,2,43.892828,
-78.842817,,Olive Westbound @ Lasalle,1262,,1,,1262,0,,2,43.892535,
-78.846057,,Olive Westbound @ Verdun,1263,,1,,1263,0,,2,43.891779,
-78.849481,,Olive Westbound @ Ritson,1264,,1,,1264,0,,2,43.890989,
-78.851768,,Olive Westbound @ Drew,1265,,1,,1265,0,,2,43.89046,
-78.855284,,Olive Westbound @ Court,1266,,1,,1266,0,,2,43.889641,
-78.966002,,Cochrane Southbound @ Medland,127,,1,,127,0,,2,43.909537,
-78.87118169999998,,Gibb Westbound @ Montrave,1276,,1,,1276,0,,2,43.8881292,
-78.874471,,Gibb Westbound @ Grenfell,1277,,1,,1277,0,,2,43.887291,
-78.87697,,Westbound @ 450 Gibb,1278,,1,,1278,0,,2,43.88680200000001,
-78.880912,,Gibb Westbound @ Stevenson (West side stop),1280,,1,,1280,0,,2,43.88595200000001,
-78.884574,,Gibb Westbound @ Waverly,1281,,1,,1281,0,,2,43.885118,
-78.887244,,Gibb Westbound @ Vancouver,1282,,1,,1282,0,,2,43.884493,
-78.88744699999998,,Gibb Eastbound @ Vancouver,1283,,1,,1283,0,,2,43.884355,
-78.884308,,Gibb Eastbound @ Waverly,1284,,1,,1284,0,,2,43.885076,
-78.88051299999998,,Gibb Eastbound @ Stevenson (West side stop),1285,,1,,1285,0,,2,43.885932,
-78.87870599999998,,Gibb Eastbound @ Stevenson (East side stop),1286,,1,,1286,0,,2,43.88625932,
-78.876312,,Eastbound @ 431 Gibb,1287,,1,,1287,0,,2,43.886764,
-78.874165,,Gibb Eastbound @ Grenfell,1288,,1,,1288,0,,2,43.887267,
-78.87204699999998,,Gibb Eastbound @ Montrave,1289,,1,,1289,0,,2,43.88775900000001,
-78.964539,,Cochrane Southbound @ Twin Streams,129,,1,,129,0,,2,43.905578,
-78.855367,,Olive Eastbound @ Court,1297,,1,,1297,0,,2,43.889552,
-78.852093,,Olive Eastbound @ Drew,1298,,1,,1298,0,,2,43.890302,
-78.848202,,Olive Eastbound @ Oshawa Boulevard,1299,,1,,1299,0,,2,43.891187,
-78.941556,,Garden Northbound @ Bassett (North stop),13,,1,,13,0,,2,43.903334,
-78.842598,,Olive Eastbound @ Lasalle,1300,,1,,1300,0,,2,43.89248,
-78.841125,,Olive Eastbound @ Highland,1301,,1,,1301,0,,2,43.892801,
-78.839043,,Olive Eastbound @ Windsor,1302,,1,,1302,0,,2,43.893281,
-78.836642,,Olive Eastbound @ Guelph,1303,,1,,1303,0,,2,43.89384600000001,
-78.834306,,Olive Eastbound @ Poplar,1304,,1,,1304,0,,2,43.894358,
-78.831355,,Olive Eastbound @ Elmridge,1305,,1,,1305,0,,1,43.89498,
-78.829032,,Olive Eastbound @ Harcourt,1306,,1,,1306,0,,1,43.895449,
-78.827236,,Olive Eastbound @ Florell,1307,,1,,1307,0,,2,43.89581297,
-78.824685,,Olive Eastbound @ Dianne,1308,,1,,1308,0,,2,43.89644,
-78.821788,,Olive Eastbound @ Keewatin,1309,,1,,1309,0,,2,43.896856,
-78.798484,,Rosswell Northbound @ Bloor,1339,,1,,1339,0,,2,43.891145,
-78.873907,,Northbound @ 1185 Mary,1353,,1,,1353,0,,2,43.928625,
-78.87249799999998,,Nonquon Northbound @ Mary,1354,,1,,1354,0,,2,43.931137,
-78.87221,,Mary Northbound @ Nonquon,1355,,1,,1355,0,,2,43.93247800000001,
-78.872776,,Mary Northbound @ Taunton,1356,,1,,1356,0,,2,43.93385593,
-78.873767,,Park Southbound @ King,1359,,1,,1359,0,,2,43.895694,
-78.87290299999998,,Park Southbound @ Pine,1360,,1,,1360,0,,2,43.893793,
-78.872083,,Park Southbound @ Elmgrove,1361,,1,,1361,0,,2,43.891968,
-78.869855,,Park Southbound @ Marland,1362,,1,,1362,0,,2,43.88699031,
-78.8719904,,Park Northbound @ John,1363,,1,,1363,0,,2,43.8922679,
-78.873147,,Park Northbound @ King,1364,,1,,1364,0,,2,43.8946786,
-78.869207,,Beatrice Westbound @ Sycamore,1371,,1,,1371,0,,2,43.929548,
-78.872625,,Beatrice Westbound @ Mary,1372,,1,,1372,0,,2,43.926963,
-78.966575,,McQuay Southbound @ Roan,138,,1,,138,0,,2,43.881419,
-78.96569599999998,,McQuay Southbound @ Kennett,139,,1,,139,0,,2,43.879842,
-78.585761,,King Westbound @ Beaver,1391,,1,,1391,0,,1,43.918275,
-78.593264,,North Northbound @ Monroe,1392,,1,,1392,0,,2,43.921392,
-78.62001,,Main Southbound @ Millson Hill,1395,,1,,1395,0,,2,43.98281,
-78.617544,,Main Southbound @ Centreview,1396,,1,,1396,0,,2,43.977406,
-78.942227,,Garden Northbound @ Dryden,14,,1,,14,0,,2,43.904811,
-78.963114,,McQuay Southbound @ Moonstone,140,,1,,140,0,,2,43.878277,
-78.588888,,Mill Northbound @ King,1408,,1,,1408,0,,2,43.917763,
-78.962215,,McQuay Southbound @ Allayden,141,,1,,141,0,,2,43.876649,
-78.593093,,North Southbound @ Grady,1410,,1,,1410,0,,2,43.921133,
-78.591266,,King Westbound @ North,1411,,1,,1411,0,,2,43.916949,
-78.590838,,King Eastbound @ Baldwin,1412,,1,,1412,0,,2,43.91693200000001,
-78.59710699999998,,King Westbound @ Pedwell,1413,,1,,1413,0,,1,43.915658,
-78.597667,,King Eastbound @ Massey,1414,,1,,1414,0,,2,43.915331,
-78.60070899999998,,King Westbound @ Rudell,1415,,1,,1415,0,,2,43.914759,
-78.680784,,King Westbound @ Liberty,1430,,1,,1430,0,,2,43.910554,
-78.68621,,King Westbound @ George,1431,,1,,1431,0,,2,43.911481,
-78.688526,,King Westbound @ Temperance,1432,,1,,1432,0,,1,43.91215300000001,
-78.695055,,King Westbound @ Roenigk,1433,,1,,1433,0,,2,43.912962,
-78.71688,,Highway 2 Westbound @ Boswell,1436,,1,,1436,0,,2,43.909692,
-78.694976,,King Eastbound @ Roenigk,1452,,1,,1452,0,,2,43.912771,
-78.687321,,King Eastbound @ Division,1454,,1,,1454,0,,2,43.911662,
-78.684811,,King Eastbound @ Ontario,1455,,1,,1455,0,,2,43.911026,
-78.680907,,King Eastbound @ Liberty,1456,,1,,1456,0,,2,43.91041,
-78.697139,,Scugog Southbound @ Longworth,1476,,1,,1476,0,,2,43.924876,
-78.695321,,Scugog Southbound @ Jackman,1477,,1,,1477,0,,2,43.920873,
-78.69368299999998,,Scugog Southbound @ O'Dell,1478,,1,,1478,0,,2,43.916997,
-78.691688,,Church Eastbound @ Scugog Street,1479,,1,,1479,0,,2,43.913909,
-78.688545,,Church Eastbound @ Temperance,1480,,1,,1480,0,,1,43.913138,
-78.67758996,,Liberty Southbound @ Park,1494,,1,,1494,0,,2,43.90430979,
-78.675014,,Simpson Northbound @ King,1498,,1,,1498,0,,1,43.911329,
-78.678921,,Prince Eastbound @ Liberty (Lakeridge Health Bowmanville),1499,,1,,1499,0,,2,43.908346,
-78.943865,,Garden Northbound @ Willowbrook,15,,1,,15,0,,2,43.908512,
-78.70716,,Clarington Boulevard Southbound @ Prince William,1504,,1,,1504,0,,1,43.908456,
-78.943946,,Burns Eastbound @ Henry,151,,1,,151,0,,2,43.870396,
-79.145977,,Pine Grove Westbound @ Nordane,1519,,1,,1519,0,,2,43.825165,
-78.940651,,Burns Eastbound @ Centre,152,,1,,152,0,,2,43.871125,
-79.132569,,Strouds Lane Eastbound @ Autumn,1547,,1,,1547,0,,2,43.825601,
-79.130377,,Strouds Lane Eastbound @ Rosebank,1548,,1,,1548,0,,2,43.826216,
-79.126176,,Strouds Lane Northbound @ Fernam,1574,,1,,1574,0,,2,43.827652,
-79.124103,,Strouds Lane Eastbound @ Foxwood Trail,1575,,1,,1575,0,,2,43.828696,
-79.121337,,Strouds Lane Westbound @ Whites (West side stop),1586,,1,,1586,0,,2,43.829426,
-78.995249,,Kingston Westbound @ Audley,1587,,1,,1587,0,,2,43.868228,
-79.00077,,Kingston Westbound @ Alexanders Crossing,1588,,1,,1588,0,,2,43.86702,
-79.0125542,,Kingston Westbound @ Wicks,1590,,1,,1590,0,,2,43.8643554,
-79.0168413,,Kingston Westbound @ Salem,1591,,1,,1591,0,,1,43.8634084,
-79.022563,,Westbound @ 84 Kingston,1593,,1,,1593,0,,2,43.862111,
-79.0267418,,Kingston Westbound @ Harwood,1594,,1,,1594,0,,1,43.8611712,
-79.031718,,Westbound @ 132 Kingston,1595,,1,,1595,0,,2,43.859995,
-79.035043,,Kingston Westbound @ Chapman,1596,,1,,1596,0,,2,43.859254,
-79.03932,,Kingston Westbound @ Westney Heights Plaza,1597,,1,,1597,0,,2,43.85832,
-79.043041,,Kingston Westbound @ Westney,1598,,1,,1598,0,,1,43.85744,
-79.047905,,Kingston Westbound @ Mill,1599,,1,,1599,0,,2,43.856298,
-78.944674,,Garden Northbound @ Meadowglen,16,,1,,16,0,,2,43.91038600000001,
-79.05529,,Kingston Westbound @ Church,1600,,1,,1600,0,,1,43.85465700000001,
-79.060678,,Kingston Westbound @ Elizabeth,1601,,1,,1601,0,,2,43.853329,
-79.064752,,Kingston Westbound @ Notion,1602,,1,,1602,0,,2,43.852381,
-79.0710031,,Kingston Westbound @ Bainbridge,1603,,1,,1603,0,,2,43.8501483,
-79.07452499999998,,Kingston Westbound @ Brock Road,1604,,1,,1604,0,,1,43.84772,
-79.083084,,Kingston Westbound @ Valley Farm,1607,,1,,1607,0,,2,43.84172800000001,
-79.08748,,Kingston Westbound @ Glenanna,1608,,1,,1608,0,,1,43.83815,
-79.09104,,Kingston Westbound @ Liverpool,1609,,1,,1609,0,,1,43.83548,
-79.09672757,,Kingston Westbound @ Walnut,1610,,1,,1610,0,,2,43.83097019,
-79.098675,,Kingston Westbound @ Dixie,1611,,1,,1611,0,,1,43.82906,
-79.106421,,Kingston Westbound @ Fairport,1612,,1,,1612,0,,1,43.823716,
-79.111949,,Westbound @ 804 Kingston,1613,,1,,1613,0,,2,43.821703,
-79.118076,,Kingston Westbound @ Steeple Hill,1615,,1,,1615,0,,1,43.817215,
-79.123324,,Kingston Westbound @ Rosebank,1616,,1,,1616,0,,2,43.81332,
-79.129028,,Kingston Westbound @ Rougemount,1617,,1,,1617,0,,2,43.809718,
-79.105278,,West Shore Southbound @ Vistula,1645,,1,,1645,0,,2,43.82025,
-78.937411,,Brock Street Northbound @ Arthur,166,,1,,166,0,,2,43.86900700000001,
-79.104211,,West Shore Southbound @ Samford,1663,,1,,1663,0,,2,43.817692,
-78.93832,,Brock Street Northbound @ St Peter,167,,1,,167,0,,1,43.87108400000001,
-79.104031,,West Shore Northbound @ Samford,1674,,1,,1674,0,,2,43.817582,
-78.938948,,Brock Street Northbound @ Burns,168,,1,,168,0,,2,43.872514,
-79.103099,,Oklahoma Westbound @ West Shore,1685,,1,,1685,0,,2,43.813826,
-79.10671499999998,,Oklahoma Westbound @ Hillcrest,1687,,1,,1687,0,,2,43.813024,
-79.105446,,Bayly Eastbound @ West Shore,1689,,1,,1689,0,,2,43.821218,
-78.93940499999998,,Brock Street Northbound @ Trent,169,,1,,169,0,,2,43.873574,
-79.102195,,Bayly Eastbound @ 957 Bayly,1690,,1,,1690,0,,2,43.822764,
-79.092836,,Bayly Eastbound @ St Martins,1693,,1,,1693,0,,2,43.827085,
-79.08666599999998,,Bayly Eastbound @ Liverpool,1694,,1,,1694,0,,2,43.828787,
-79.08495872161193,,Bayly Eastbound @ Pickering Station,1695,,1,,1695,0,,2,43.82915733045823,
-78.946197,,Garden Northbound @ Cork,17,,1,,17,0,,2,43.91380800000001,
-78.9408107746133,,Brock Street Northbound @ Gilbert,170,,1,,170,0,,2,43.87664417732835,
-79.075833,,Alyssum Eastbound @ Lublin,1701,,1,,1701,0,,2,43.824092,
-79.072432,,Sandy Beach Southbound @ Parkham,1703,,1,,1703,0,,2,43.819293,
-79.06519369171588,,Montgomery Park Eastbound @ OPG Pickering,1706,,1,,1706,0,,2,43.8143165023665,
-79.06028999999998,,Montgomery Park Eastbound @ Brock Road,1707,,1,,1707,0,,2,43.815436,
-78.94210099999998,,Brock Street Northbound @ Dundas,171,,1,,171,0,,1,43.879703,
-79.054705,,Clements Westbound @ Squires Beach,1713,,1,,1713,0,,2,43.827022,
-79.05666669999998,,Westbound @ 1850 Clements,1714,,1,,1714,0,,2,43.8266135,
-79.060627,,Westbound @ 1768 Clements,1715,,1,,1715,0,,2,43.825697,
-79.063235,,Clements Westbound @ Brock Road,1716,,1,,1716,0,,1,43.825146,
-78.943093,,Brock Street Northbound @ John,172,,1,,172,0,,2,43.882531,
-79.07411399999998,,Brock Road Northbound @ Kingston,1724,,1,,1724,0,,2,43.848587,
-79.08913099999998,,Liverpool Northbound @ Pickering Parkway,1729,,1,,1729,0,,2,43.833073,
-78.943797,,Brock Street Northbound @ Walnut,173,,1,,173,0,,2,43.884079,
-79.090151,,Liverpool Northbound @ Kingston,1730,,1,,1730,0,,1,43.835391,
-79.09107,,Northbound @ 1851 Liverpool,1731,,1,,1731,0,,1,43.837643,
-79.091944,,Liverpool Northbound @ Glenanna,1732,,1,,1732,0,,2,43.83937800000001,
-79.092623,,Northbound @ 1917 Liverpool,1733,,1,,1733,0,,2,43.840787,
-79.093507,,Liverpool Northbound @ Anton Square,1734,,1,,1734,0,,2,43.842877,
-78.944286,,Brock Street Northbound @ Chestnut,174,,1,,174,0,,2,43.88521,
-79.089382,,Liverpool Southbound @ Pickering Parkway,1741,,1,,1741,0,,2,43.832976,
-79.115943,,Kingston Westbound @ Whites,1742,,1,,1742,0,,2,43.818764,
-79.116675,,Whites Northbound @ Sheppard,1743,,1,,1743,0,,2,43.821974,
-79.11869299999998,,Whites Northbound @ Briar Wood,1745,,1,,1745,0,,2,43.826169,
-79.120021,,Whites Northbound @ Strouds,1746,,1,,1746,0,,1,43.82930600000001,
-79.121756,,Whites Northbound @ New,1747,,1,,1747,0,,2,43.833399,
-79.12405,,Whites Northbound @ Finch,1749,,1,,1749,0,,2,43.838667,
-78.94474599999998,,Brock Street Northbound @ Maple,175,,1,,175,0,,2,43.886266,
-79.126966,,Whites Southbound @ Sunbird Trail,1751,,1,,1751,0,,2,43.84406700000001,
-79.124218,,Whites Southbound @ Finch,1753,,1,,1753,0,,2,43.83854,
-79.122213,,Whites Southbound @ Highview,1755,,1,,1755,0,,2,43.83396548000001,
-79.120489,,Whites Southbound @ Strouds (north stop),1756,,1,,1756,0,,2,43.829869,
-79.118976,,Whites Southbound @ Bayfield,1757,,1,,1757,0,,2,43.826304,
-79.116696,,Whites Southbound @ Sheppard,1759,,1,,1759,0,,2,43.821446,
-78.94666,,Northbound @ 807 Brock Street,176,,1,,176,0,,2,43.89055,
-79.077511,,Bayly Eastbound @ Sandy Beach,1760,,1,,1760,0,,2,43.83072700000001,
-79.07395099999998,,Bayly Eastbound @ Alliance,1761,,1,,1761,0,,2,43.83155,
-79.070556,,Bayly Eastbound @ Salk,1762,,1,,1762,0,,2,43.832321,
-79.06841759,,Bayly Eastbound @ Brock Road,1763,,1,,1763,0,,1,43.83279628,
-79.064971,,Bayly Eastbound @ Toy,1764,,1,,1764,0,,2,43.833567,
-79.0656863,,Bayly Westbound @ Toy,1765,,1,,1765,0,,2,43.8336033,
-79.068809,,Bayly Westbound @ Brock Road,1766,,1,,1766,0,,1,43.832884,
-79.0705011,,Bayly Westbound @ Salk,1767,,1,,1767,0,,2,43.8324969,
-79.074425,,Bayly Westbound @ Alliance,1768,,1,,1768,0,,2,43.83159,
-79.077296,,Bayly Westbound @ Sandy Beach,1769,,1,,1769,0,,2,43.830956,
-78.94736,,Brock Street Northbound @ Manning,177,,1,,177,0,,1,43.89226,
-79.08112199999998,,Bayly Westbound @ Krosno,1770,,1,,1770,0,,2,43.830141,
-79.08286699999998,,Bayly  @ Pickering Station,1771,,1,,1771,0,,2,43.82978700000001,
-79.092178,,Bayly Westbound @ St Martins,1772,,1,,1772,0,,2,43.82763700000001,
-79.129988,,Kingston Eastbound @ Rougemount,1776,,1,,1776,0,,2,43.80911600000001,
-79.123765,,Kingston Eastbound @ Rosebank,1777,,1,,1777,0,,2,43.812717,
-79.11821999999998,,Kingston Eastbound @ Steeple Hill,1778,,1,,1778,0,,1,43.816824,
-79.114699,,Kingston Eastbound @ Whites,1779,,1,,1779,0,,2,43.819366,
-79.110401,,Eastbound @ 817 Kingston,1780,,1,,1780,0,,2,43.82242200000001,
-79.1066,,Kingston Eastbound @ Fairport,1781,,1,,1781,0,,1,43.823526,
-79.098733,,Kingston Eastbound @ Dixie,1782,,1,,1782,0,,1,43.828459,
-79.096536,,Kingston Eastbound @ Walnut,1783,,1,,1783,0,,2,43.830837,
-79.08637299999998,,Kingston Eastbound @ Glenanna,1786,,1,,1786,0,,1,43.838707,
-79.081877,,Kingston Eastbound @ Valley Farm,1787,,1,,1787,0,,2,43.842456,
-79.0734468,,Kingston Eastbound @ Brock Road,1789,,1,,1789,0,,1,43.84806,
-78.9483474,,Brock Street Northbound @ Wallace,179,,1,,179,0,,2,43.8946592,
-79.0700786,,Kingston Eastbound @ Bainbridge,1790,,1,,1790,0,,2,43.8504078,
-79.085486,,Finch Westbound @ Valley Farm,1792,,1,,1792,0,,2,43.847733,
-78.947352,,Garden Northbound @ Taunton (South side stop),18,,1,,18,0,,2,43.91657707,
-78.9498138428324,,Brock Street Northbound @ Rossland,180,,1,,180,0,,2,43.89786581611692,
-78.95127364537692,,Brock Street Northbound @ Kenneth Hobbs,181,,1,,181,0,,2,43.90096372795096,
-78.95243295178959,,Brock Street Northbound @ Dryden,182,,1,,182,0,,1,43.90360615973618,
-78.953906,,Northbound @ 3603 Brock Street,183,,1,,183,0,,2,43.90666800000001,
-79.08241599999998,,Southbound @ 725 Krosno,1832,,1,,1832,0,,2,43.82171000000001,
-78.95486433761245,,Brock Street Northbound @ Woodlands,184,,1,,184,0,,1,43.90919615779485,
-79.0848981,,Liverpool Southbound @ Haller,1842,,1,,1842,0,,2,43.8230252,
-79.076493,,Brock Road Northbound @ Usman,1846,,1,,1846,0,,2,43.852804,
-79.077417,,Brock Road Northbound @ Major Oaks,1847,,1,,1847,0,,1,43.854784,
-79.08041799999998,,Dellbrook Westbound @ Melman,1849,,1,,1849,0,,2,43.858563,
-78.95640256128728,,Brock Street Northbound @ Joy Thompson,185,,1,,185,0,,2,43.91277413097844,
-79.0856358,,Dellbrook Westbound @ Blue Ridge (East stop),1852,,1,,1852,0,,2,43.8607027,
-79.089584,,Dellbrook Westbound @ Major Oaks,1854,,1,,1854,0,,2,43.860264,
-79.088725,,Major Oaks Southbound @ Pepperwood,1855,,1,,1855,0,,2,43.85834100000001,
-78.957317,,Brock Street Northbound @ Taunton,186,,1,,186,0,,2,43.91494265,
-79.07651799999998,,Southbound @ 2058 Brock Road (Brock Ridge Community Park),1861,,1,,1861,0,,2,43.85219,
-79.089437,,Finch Westbound @ Rosefield,1866,,1,,1866,0,,2,43.846859,
-78.958405,,Baldwin Northbound @ Broadleaf,187,,1,,187,0,,2,43.91826600000001,
-79.10971135653655,,Finch Westbound @ Duncannon,1872,,1,,1872,0,,2,43.84232084910814,
-79.11427994082172,,Finch Westbound @ Fairport,1873,,1,,1873,0,,2,43.84132877809322,
-78.960088,,Baldwin Northbound @ Robert Attersley,188,,1,,188,0,,2,43.922073,
-79.114864,,Finch Eastbound @ Fairport,1887,,1,,1887,0,,1,43.841082,
-79.11170584585518,,Finch Eastbound @ Huntsmill,1888,,1,,1888,0,,2,43.84172743428303,
-78.961574,,Baldwin Northbound @ Sleepy Hollow,189,,1,,189,0,,2,43.92549000000001,
-79.105023,,Finch Eastbound @ Dixie,1890,,1,,1890,0,,2,43.843166,
-79.0900957,,Finch Eastbound @ Rosefield,1894,,1,,1894,0,,2,43.84660860000001,
-78.961073,,Baldwin Northbound @ Robmar,190,,1,,190,0,,2,43.935355,
-78.96117,,Baldwin Southbound @ Robmar,191,,1,,191,0,,2,43.935439,
-79.084563,,Glenanna Southbound @ The Esplanade (South side stop),1915,,1,,1915,0,,2,43.83744,
-78.962027,,Baldwin Southbound @ Sonley,192,,1,,192,0,,2,43.925998,
-79.093254,,Glenanna Westbound @ Glendale,1920,,1,,1920,0,,2,43.838509,
-79.095309,,Glenanna Westbound @ Bronte,1921,,1,,1921,0,,2,43.83803000000001,
-79.09910499999998,,Glenanna Westbound @ Listowell,1922,,1,,1922,0,,2,43.83683700000001,
-79.1013673,,Glenanna Westbound @ Dixie,1923,,1,,1923,0,,2,43.8364337,
-78.96051,,Baldwin Southbound @ Robert Attersley (North side stop),193,,1,,193,0,,2,43.922437,
-79.099024,,Glenanna Eastbound @ Listowell,1933,,1,,1933,0,,2,43.836731,
-79.096622,,Glenanna Eastbound @ Bowler,1934,,1,,1934,0,,2,43.83762,
-79.09366799999998,,Glenanna Eastbound @ Glendale,1935,,1,,1935,0,,2,43.838287,
-79.0881538,,Glenanna Southbound @ Kingston,1936,,1,,1936,0,,1,43.8390289,
-79.065168,,Pickering Parkway Westbound @ Beechlawn,1947,,1,,1947,0,,2,43.843901,
-79.0698917,,Westbound @ 1738 Pickering Parkway,1949,,1,,1949,0,,2,43.8436022,
-78.958862,,Baldwin Southbound @ Broadleaf,195,,1,,195,0,,2,43.918627,
-78.95792659999998,,Baldwin Southbound @ Taunton,196,,1,,196,0,,2,43.9161151,
-79.078013,,Pickering Parkway Eastbound @ Valley Farm,1960,,1,,1960,0,,2,43.836906,
-79.072916,,Pickering Parkway Northbound @ Portland,1961,,1,,1961,0,,2,43.839791,
-79.073371,,Pickering Parkway Eastbound @ Dreyber,1962,,1,,1962,0,,2,43.8413,
-79.073721,,Pickering Parkway Eastbound @ Denmar,1963,,1,,1963,0,,2,43.84296100000001,
-79.070464,,Eastbound @ 1733 Pickering Parkway,1964,,1,,1964,0,,2,43.843629,
-79.0678524,,Eastbound @ 1755 Pickering Parkway,1965,,1,,1965,0,,2,43.8431731,
-79.065034,,Pickering Parkway Eastbound @ Beechlawn,1966,,1,,1966,0,,2,43.84381900000001,
-78.957001,,Southbound @ 3800 Brock Street,197,,1,,197,0,,2,43.913297,
-78.95500607203,,Brock Street Southbound @ Whitburn,198,,1,,198,0,,1,43.90858510693625,
-79.085622,,Liverpool Southbound @ Patmore,1986,,1,,1986,0,,2,43.824687,
-78.954297,,Southbound @ 3626 Brock Street,199,,1,,199,0,,2,43.907209,
-78.9524205159256,,Brock Street Southbound @ James Rowe,200,,1,,200,0,,1,43.90270016653976,
-79.084806,,Liverpool Northbound @ Haller,2002,,1,,2002,0,,2,43.823093,
-79.085611,,Liverpool Northbound @ Patmore,2003,,1,,2003,0,,2,43.824917,
-79.05785441,,Bayly Eastbound @ Squires Beach,2004,,1,,2004,0,,2,43.83507642,
-78.95121049249947,,Brock Street Southbound @ McCartney,201,,1,,201,0,,2,43.89984561573447,
-79.022832,,Finley Southbound @ Burden,2015,,1,,2015,0,,2,43.821244,
-79.01975093,,Lake Driveway Westbound @ Finley,2016,,1,,2016,0,,2,43.8190999,
-78.950113,,Brock Street Southbound @ Rossland,202,,1,,202,0,,2,43.897776,
-79.034075,,Lake Driveway Northbound @ Hawkins,2022,,1,,2022,0,,2,43.823774,
-79.032934,,Lake Driveway Northbound @ Kipling,2023,,1,,2023,0,,2,43.826225,
-79.012911,,Dreyer Eastbound @ Harwood,2026,,1,,2026,0,,2,43.83100300000001,
-79.003947,,Clover Ridge Southbound @ Bryant,2029,,1,,2029,0,,2,43.830365,
-78.94865,,Brock Street Southbound @ Palmerston,203,,1,,203,0,,2,43.89499,
-79.00503,,Clover Ridge Southbound @ Gregory,2030,,1,,2030,0,,2,43.829063,
-79.0073526,,Clover Ridge Westbound @ Crawford,2031,,1,,2031,0,,2,43.827273,
-78.990826,,Ashbury Eastbound @ Wiseman,2039,,1,,2039,0,,2,43.832912,
-78.94755,,Brock Street Southbound @ Starr (North side stop),204,,1,,204,0,,1,43.89251,
-78.985365,,Ashbury Eastbound @ Audley,2041,,1,,2041,0,,2,43.832005,
-78.9859383,,Audley Northbound @ Handley,2046,,1,,2046,0,,2,43.8348382,
-78.987718,,Audley Northbound @ Keywood,2050,,1,,2050,0,,2,43.848091,
-79.02482652,,Monarch Southbound @ Bayly,2052,,1,,2052,0,,2,43.8419315,
-79.023794,,Monarch Southbound @ Centennial,2053,,1,,2053,0,,2,43.839545,
-79.022383,,Southbound @ 556 Monarch,2054,,1,,2054,0,,2,43.83624600000001,
-79.021721,,Monarch Southbound @ Clements,2055,,1,,2055,0,,2,43.834733,
-79.01322,,Clover Ridge Westbound @ Harwood,2058,,1,,2058,0,,1,43.82619600000001,
-78.9467193,,Southbound @ 814 Brock Street,206,,1,,206,0,,2,43.8904162,
-79.013822,,Harwood Northbound @ Gorton,2065,,1,,2065,0,,2,43.82833209000001,
-79.014268,,Northbound @ 819 Harwood,2066,,1,,2066,0,,2,43.83001,
-79.014843,,Northbound @ 655 Harwood,2068,,1,,2068,0,,1,43.836126,
-79.01542,,Harwood Northbound @ Emperor (Lakeridge Health Ajax Pickering),2069,,1,,2069,0,,2,43.837528,
-78.945274,,Brock Street Southbound @ Maple,207,,1,,207,0,,2,43.886977,
-79.017956,,Harwood Northbound @ Falby,2070,,1,,2070,0,,2,43.839992,
-79.018082,,Harwood Northbound @ Bayly,2072,,1,,2072,0,,1,43.843789,
-79.019272,,Harwood Northbound @ Kings Crescent (South stop),2073,,1,,2073,0,,1,43.846645,
-79.02055799999998,,Harwood Northbound @ Kings Crescent (North stop),2074,,1,,2074,0,,2,43.84973200000001,
-79.020696,,Harwood Southbound @ Kings Crescent,2076,,1,,2076,0,,2,43.849235,
-79.018636,,Harwood Southbound @ Bayly,2078,,1,,2078,0,,1,43.844243,
-79.018227,,Harwood Southbound @ Falby,2079,,1,,2079,0,,2,43.839809,
-78.944315,,Brock Street Southbound @ Chestnut,208,,1,,208,0,,2,43.884855,
-79.015332,,Southbound @ 580 Harwood Avenue South (Lakeridge Health Ajax Pickering),2080,,1,,2080,0,,2,43.83667100000001,
-79.015122,,Harwood Southbound @ Clements,2081,,1,,2081,0,,2,43.83498800000001,
-79.01500299999998,,Southbound @ 766 Harwood,2082,,1,,2082,0,,2,43.83234800000001,
-79.014812,,Harwood Southbound @ Westney,2083,,1,,2083,0,,1,43.831109,
-78.99327,,Range Line Westbound @ Mayor,2088,,1,,2088,0,,2,43.83037,
-78.943838,,Brock Street Southbound @ Walnut,209,,1,,209,0,,2,43.883763,
-79.0021836,,Pickering Beach Northbound @ Rollo (South stop),2092,,1,,2092,0,,1,43.8317563,
-79.00351499999998,,Northbound @ 727 Pickering Beach,2093,,1,,2093,0,,2,43.83484,
-79.0042527,,Pickering Beach Northbound @ Rollo (North stop),2094,,1,,2094,0,,2,43.8365894,
-79.006067,,Pickering Beach Northbound @ Howling Crescent,2095,,1,,2095,0,,1,43.841101,
-79.006018,,Pickering Beach Northbound @ Greenhalf,2096,,1,,2096,0,,2,43.84355324,
-79.00557499999998,,Pickering Beach Northbound @ Powers Valley,2097,,1,,2097,0,,2,43.84503584,
-78.94316,,Brock Street Southbound @ Mary,210,,1,,210,0,,2,43.882233,
-78.942282,,Brock Street Southbound @ Dundas,211,,1,,211,0,,1,43.87995200000001,
-78.941093,,Brock Street Southbound @ Gilbert,212,,1,,212,0,,2,43.876878,
-78.940579,,Brock Street Southbound @ Ontario,213,,1,,213,0,,2,43.87582900000001,
-79.02769499999998,,Harwood Northbound @ Biggs,2136,,1,,2136,0,,2,43.881794,
-79.028774,,Harwood Northbound @ Woodcock,2137,,1,,2137,0,,2,43.88408900000001,
-79.032422,,Harwood Westbound @ Woodcock,2138,,1,,2138,0,,2,43.885292,
-79.0372909,,Harwood Northbound @ Williamson,2139,,1,,2139,0,,2,43.8880633,
-78.939683,,Brock Street Southbound @ Trent,214,,1,,214,0,,2,43.873776,
-79.03234399999998,,Harwood Southbound @ Woodcock,2141,,1,,2141,0,,2,43.88507983,
-79.030202,,Southbound @ 1370 Harwood,2142,,1,,2142,0,,2,43.884808,
-79.028197,,Harwood Southbound @ Biggs,2143,,1,,2143,0,,2,43.88232766,
-79.0273906,,Harwood Southbound @ Rossland,2144,,1,,2144,0,,2,43.8802553,
-79.026265,,Harwood Southbound @ Fishlock,2145,,1,,2145,0,,2,43.877704,
-79.024716,,Harwood Southbound @ Hibbard,2146,,1,,2146,0,,2,43.874193,
-79.024269,,Harwood Southbound @ Kerrison,2147,,1,,2147,0,,2,43.87033000000001,
-79.02528,,Harwood Southbound @ Ringer,2148,,1,,2148,0,,2,43.867723,
-79.026404,,Harwood Southbound @ Chapman,2149,,1,,2149,0,,2,43.86438600000001,
-78.93923599999998,,Southbound @ 786 Brock Street,215,,1,,215,0,,2,43.872757,
-79.02633899999998,,Harwood Southbound @ Kingston,2151,,1,,2151,0,,2,43.861847,
-79.02495999999998,,Harwood Southbound @ Gardiner,2152,,1,,2152,0,,2,43.858871,
-79.024118,,Harwood Southbound @ Ontario,2153,,1,,2153,0,,2,43.857094,
-79.023336,,Harwood Southbound @ Brock Street,2154,,1,,2154,0,,2,43.855292,
-79.02292199999998,,Harwood Northbound @ Oak,2155,,1,,2155,0,,2,43.854752,
-79.023745,,Harwood Northbound @ Doric,2156,,1,,2156,0,,2,43.856625,
-79.024518,,Harwood Northbound @ Mandrake,2157,,1,,2157,0,,2,43.858455,
-79.02605,,Harwood Northbound @ Kingston,2158,,1,,2158,0,,2,43.861921,
-79.026117,,Harwood Northbound @ Chapman,2159,,1,,2159,0,,2,43.863997,
-78.938597,,Brock Street Southbound @ Burns,216,,1,,216,0,,1,43.871232,
-79.025183,,Harwood Northbound @ Ringer,2160,,1,,2160,0,,2,43.867257,
-79.024135,,Harwood Northbound @ Kerrison,2161,,1,,2161,0,,2,43.869841,
-79.02424999999998,,Harwood Northbound @ Hibbard,2162,,1,,2162,0,,2,43.873823,
-79.025754,,Harwood Northbound @ Fishlock,2163,,1,,2163,0,,2,43.877314,
-79.02673,,Harwood Northbound @ Rossland,2164,,1,,2164,0,,2,43.87954400000001,
-79.04696,,Rossland Eastbound @ Pearce,2168,,1,,2168,0,,2,43.87530000000001,
-79.04190199999998,,Rossland Eastbound @ Westney,2169,,1,,2169,0,,1,43.876463,
-78.9376805,,Brock Street Southbound @ Arthur,217,,1,,217,0,,2,43.8691799,
-79.019467,,Rossland Eastbound @ Salem,2171,,1,,2171,0,,1,43.881463,
-79.011115,,Rossland Eastbound @ Rushworth,2172,,1,,2172,0,,1,43.883402,
-79.007262,,Rossland Eastbound @ Hilton,2173,,1,,2173,0,,2,43.884305,
-79.004013,,Rossland Eastbound @ Audley,2174,,1,,2174,0,,2,43.885035,
-78.993144,,Rossland Eastbound @ Lake Ridge,2175,,1,,2175,0,,2,43.887478,
-78.993369,,Rossland Westbound @ Lake Ridge,2176,,1,,2176,0,,2,43.887606,
-79.003906,,Rossland Westbound @ Audley,2177,,1,,2177,0,,2,43.885183,
-79.007121,,Rossland Westbound @ Hilton,2178,,1,,2178,0,,2,43.884465,
-79.01085999999998,,Rossland Westbound @ Rushworth,2179,,1,,2179,0,,1,43.883554,
-79.049211,,Ravenscroft Northbound @ Brennan,2182,,1,,2182,0,,2,43.864849,
-79.050094,,Ravenscroft Northbound @ Matthews,2183,,1,,2183,0,,2,43.866904,
-79.051332,,Ravenscroft Northbound @ Delaney,2184,,1,,2184,0,,2,43.869752,
-79.052373,,Ravenscroft Northbound @ Hyde,2185,,1,,2185,0,,2,43.872168,
-79.061829,,Church Southbound @ Strickland,2204,,1,,2204,0,,2,43.868838,
-79.061098,,Southbound @ 570 Church,2205,,1,,2205,0,,2,43.86716,
-79.059791,,Church Southbound @ Delaney,2206,,1,,2206,0,,2,43.86411300000001,
-79.05909,,Southbound @ 370 Church,2207,,1,,2207,0,,2,43.86250900000001,
-79.057714,,Church Southbound @ Meekings,2208,,1,,2208,0,,2,43.85935,
-79.05582,,Church Southbound @ Kingston,2209,,1,,2209,0,,2,43.854942,
-79.00946,,Kingston Eastbound @ Wicks,2218,,1,,2218,0,,2,43.8648288,
-79.00020499999998,,Kingston Eastbound @ Alexanders Crossing,2220,,1,,2220,0,,2,43.866897,
-78.996374,,Kingston Eastbound @ Audley,2221,,1,,2221,0,,2,43.867763,
-79.060413,,Kingston Eastbound @ Elizabeth,2233,,1,,2233,0,,2,43.85324,
-79.056628,,Eastbound @ 625 Kingston,2234,,1,,2234,0,,1,43.85417000000001,
-79.048411,,Kingston Eastbound @ Mill,2235,,1,,2235,0,,2,43.85603900000001,
-79.0409645,,Kingston Eastbound @ Westney,2236,,1,,2236,0,,1,43.8576991,
-79.035728,,Kingston Eastbound @ Ritchie,2238,,1,,2238,0,,2,43.858841,
-79.028621,,Eastbound @ 113 Kingston,2240,,1,,2240,0,,2,43.860433,
-79.025056,,Kingston Eastbound @ Harwood,2241,,1,,2241,0,,1,43.861263,
-79.021604,,Eastbound @ 69 Kingston,2242,,1,,2242,0,,2,43.862037,
-79.020109,,Rossland Westbound @ Salem,2244,,1,,2244,0,,2,43.881479,
-79.04816599999998,,Westney Southbound @ Atherton,2246,,1,,2246,0,,2,43.88795600000001,
-79.047031,,Westney Southbound @ Williamson,2247,,1,,2247,0,,2,43.88526,
-79.045538,,Southbound @ 1328 Westney,2248,,1,,2248,0,,2,43.881817,
-79.04483999999998,,Westney Southbound @ Telford,2249,,1,,2249,0,,2,43.880069,
-78.922613,,Anderson Northbound @ Dundas,225,,1,,225,0,,2,43.884831,
-79.043719,,Westney Southbound @ Rossland (North side stop),2250,,1,,2250,0,,2,43.877313,
-79.0432136,,Westney Northbound @ Rossland,2252,,1,,2252,0,,1,43.87696840000001,
-79.044516,,Westney Northbound @ Telford,2253,,1,,2253,0,,2,43.879701,
-79.045439,,Northbound @ 1331 Westney,2254,,1,,2254,0,,2,43.881886,
-79.047648,,Westney Northbound @ Curtis,2256,,1,,2256,0,,2,43.88721000000001,
-79.048786,,Northbound @ 1753 Westney,2257,,1,,2257,0,,2,43.88983600000001,
-79.042872,,Westney Southbound @ Rossland (South side stop),2258,,1,,2258,0,,1,43.87519152,
-79.041717,,Westney Southbound @ Coughlen,2259,,1,,2259,0,,2,43.872596,
-78.923509,,Anderson Northbound @ Crawforth,226,,1,,226,0,,2,43.886903,
-79.04054189999998,,Westney Southbound @ Ivers,2260,,1,,2260,0,,2,43.8698042,
-79.039272,,Westney Southbound @ Delaney,2261,,1,,2261,0,,1,43.866866,
-79.039095,,Southbound @ 350 Westney,2262,,1,,2262,0,,2,43.86482,
-79.0398311,,Southbound @ 216 Westney,2263,,1,,2263,0,,2,43.8632403,
-79.041014,,Westney Southbound @ Millington,2264,,1,,2264,0,,2,43.860608,
-79.041345,,Westney Southbound @ Bramwell,2266,,1,,2266,0,,2,43.854027,
-79.03957,,Westney Southbound @ Fairall,2268,,1,,2268,0,,2,43.846828,
-79.03655988,,Westney Southbound @ O'Brien,2269,,1,,2269,0,,2,43.8434567,
-78.925314,,Anderson Northbound @ Frederick,227,,1,,227,0,,2,43.890994,
-79.035459,,Westney Southbound @ Bayly,2270,,1,,2270,0,,2,43.84046,
-79.016374,,Westney Eastbound @ Harwood,2276,,1,,2276,0,,2,43.83075500000001,
-79.032781,,Westney Northbound @ Clements,2277,,1,,2277,0,,2,43.831821,
-78.925967,,Anderson Northbound @ Maplewood,228,,1,,228,0,,2,43.892564,
-79.0353224,,Westney Northbound @ Bayly (North side stop),2280,,1,,2280,0,,2,43.8412546,
-79.036025,,Westney Northbound @ O'Brien,2281,,1,,2281,0,,2,43.843068,
-79.041066,,Westney Northbound @ Ritchie,2282,,1,,2282,0,,2,43.853799,
-79.04155679,,Westney Northbound @ Kingston,2283,,1,,2283,0,,2,43.85724787,
-79.040329,,Westney Northbound @ Ravenscroft,2285,,1,,2285,0,,2,43.861546,
-79.038754,,Westney Northbound @ Magill,2286,,1,,2286,0,,1,43.866181,
-79.040561,,Westney Northbound @ Ivers,2287,,1,,2287,0,,2,43.87030193,
-79.04188859999998,,Westney Northbound @ Sullivan,2288,,1,,2288,0,,2,43.8737626,
-79.086894,,Liverpool Northbound @ Bayly,2298,,1,,2298,0,,2,43.827964,
-79.04730836,,Bayly Eastbound @ Church,2299,,1,,2299,0,,1,43.83746702,
-79.03458,,Bayly Eastbound @ Westney,2300,,1,,2300,0,,2,43.840287,
-79.030872,,Bayly Eastbound @ Finley,2301,,1,,2301,0,,2,43.841093,
-79.02756599999998,,Bayly Eastbound @ Mackenzie,2302,,1,,2302,0,,2,43.841851,
-79.025254,,Bayly Eastbound @ Monarch,2303,,1,,2303,0,,2,43.8423437,
-79.02351899999998,,Bayly Eastbound @ Woodchester,2304,,1,,2304,0,,2,43.842726,
-79.02102331,,Bayly Eastbound @ Kitney,2305,,1,,2305,0,,2,43.84332238201808,
-79.012218,,Bayly Eastbound @ Burcher,2307,,1,,2307,0,,2,43.845278,
-79.009096,,Bayly Eastbound @ Porte,2308,,1,,2308,0,,2,43.846033,
-79.006585,,Bayly Eastbound @ Pickering Beach,2309,,1,,2309,0,,1,43.846502,
-78.99917499999998,,Bayly Eastbound @ Shoal Point,2310,,1,,2310,0,,2,43.848164,
-78.99802099999998,,Bayly Westbound @ Shoal Point,2311,,1,,2311,0,,2,43.84862720000001,
-79.00124,,Bayly Westbound @ Boone,2312,,1,,2312,0,,2,43.847892,
-79.00565,,Bayly Westbound @ Salem,2313,,1,,2313,0,,1,43.84699,
-79.009124,,Bayly Westbound @ Porte,2314,,1,,2314,0,,2,43.846159,
-79.01148499999998,,Bayly Westbound @ Burcher,2315,,1,,2315,0,,2,43.845625,
-79.017732,,Bayly Westbound @ Harwood,2316,,1,,2316,0,,1,43.844242,
-79.020186,,Bayly Westbound @ Commercial,2317,,1,,2317,0,,2,43.843703,
-79.021975,,Bayly Westbound @ Woodchester,2318,,1,,2318,0,,2,43.843281,
-79.024703,,Bayly Westbound @ Monarch,2319,,1,,2319,0,,2,43.842681,
-79.0278284,,Bayly Westbound @ Mackenzie,2320,,1,,2320,0,,2,43.8419865,
-79.030484,,Bayly Westbound @ Finley,2321,,1,,2321,0,,2,43.84141000000001,
-79.035039,,Bayly Westbound @ Westney,2322,,1,,2322,0,,2,43.840417,
-79.05759999999998,,Bayly Westbound @ Squires Beach,2323,,1,,2323,0,,2,43.83537,
-79.04777984,,Bayly Westbound @ Church,2324,,1,,2324,0,,1,43.83755071,
-79.02333478682516,,Hunt Westbound @ Mills,2326,,1,,2326,0,,2,43.84675350879057,
-79.030842,,Fairall Westbound @ Dowty,2328,,1,,2328,0,,2,43.848622,
-79.034274,,Fairall Westbound @ McMaster,2329,,1,,2329,0,,2,43.847858,
-79.038432,,Fairall Westbound @ Westney,2330,,1,,2330,0,,2,43.84696000000001,
-79.0381401,,Fairall Eastbound @ Westney (East side stop),2331,,1,,2331,0,,2,43.8469093,
-79.034135,,Fairall Eastbound @ McMaster,2332,,1,,2332,0,,2,43.847784,
-79.0293951,,Fairall Eastbound @ Dowty,2333,,1,,2333,0,,2,43.8488203,
-79.0209055885104,,Hunt Eastbound @ Harwood,2335,,1,,2335,0,,2,43.84718321812876,
-79.024869,,Eastbound @ 87 Station,2351,,1,,2351,0,,2,43.850729,
-79.021846,,Station Eastbound @ Harwood,2352,,1,,2352,0,,2,43.85141200000001,
-79.038914,,Eastbound @ 43 Taunton,2398,,1,,2398,0,,2,43.896029,
-79.034803,,Taunton Eastbound @ Middlecote,2399,,1,,2399,0,,2,43.896906,
-79.0312632,,Taunton Eastbound @ Salem,2400,,1,,2400,0,,1,43.897731,
-79.0245374,,Taunton Eastbound @ Gillett,2401,,1,,2401,0,,2,43.8993868,
-79.017127,,Taunton Eastbound @ Warner,2402,,1,,2402,0,,1,43.901133,
-79.011461,,Taunton Eastbound @ Audley,2403,,1,,2403,0,,2,43.902546,
-79.011878,,Taunton Westbound @ Audley,2404,,1,,2404,0,,2,43.90267,
-79.01660699999998,,Taunton Westbound @ Warner,2405,,1,,2405,0,,1,43.9015153,
-79.0315523,,Taunton Westbound @ Salem,2406,,1,,2406,0,,1,43.8979268,
-79.0342846,,Taunton Westbound @ Middlecote,2407,,1,,2407,0,,2,43.8972765,
-79.1330801,,Eastbound @ 6 Welwood,2416,,1,,2416,0,,2,44.087782,
-79.131489,,Plaza Northbound @ Welwood,2417,,1,,2417,0,,2,44.089648,
-79.132073,,Toronto Northbound @ Douglas,2418,,1,,2418,0,,2,44.09199000000001,
-79.12808,,Toronto Northbound @ Elgin Park,2419,,1,,2419,0,,2,44.097727,
-79.125598,,Toronto Northbound @ Campbell,2420,,1,,2420,0,,2,44.101583,
-79.123332,,Toronto Northbound @ Poplar,2421,,1,,2421,0,,2,44.106913,
-79.122461,,Toronto Northbound @ Brock Street (North side stop),2422,,1,,2422,0,,2,44.109303,
-79.122648,,Toronto Street Southbound @ Brock Street,2424,,1,,2424,0,,2,44.10911,
-79.124135,,Toronto Southbound @ Peel,2425,,1,,2425,0,,2,44.105762,
-79.124941,,Toronto Southbound @ Mill,2426,,1,,2426,0,,2,44.104382,
-79.125703,,Toronto Southbound @ Campbell,2427,,1,,2427,0,,2,44.102555,
-79.113612,,Reach Eastbound @ East,2428,,1,,2428,0,,2,44.104907,
-79.111752,,Reach Eastbound @ Hamilton,2429,,1,,2429,0,,2,44.104684,
-79.109229,,Reach Eastbound @ Testa,2430,,1,,2430,0,,2,44.104464,
-79.108006,,Reach Northbound @ Coral Creek,2431,,1,,2431,0,,2,44.104497,
-79.115832,,Franklin Northbound @ Parkside,2433,,1,,2433,0,,2,44.106913,
-79.117222,,Franklin Northbound @ Brock Street,2434,,1,,2434,0,,2,44.109968,
-79.128533,,Toronto Southbound @ Elgin Park,2436,,1,,2436,0,,2,44.09739900000001,
-79.12506,,Toronto Northbound @ Mill,2437,,1,,2437,0,,2,44.10394500000001,
-79.123036,,Toronto Southbound @ Brock Street (South side stop),2438,,1,,2438,0,,2,44.107718,
-79.11723499999998,,Franklin Southbound @ Brock Street,2441,,1,,2441,0,,2,44.10972000000001,
-79.116345,,Southbound @ 72 Franklin,2442,,1,,2442,0,,2,44.107774,
-79.12032499999998,,Brock Street Westbound @ Main Street,2443,,1,,2443,0,,2,44.109472,
-79.035732,,Reach Westbound @ Marsh Hill (Epsom),2444,,1,,2444,0,,2,44.093705,
-79.035966,,Reach Eastbound @ Marsh Hill (Epsom),2445,,1,,2445,0,,2,44.093585,
-78.985241,,Reach Eastbound @ Reach Industrial Park,2446,,1,,2446,0,,2,44.104969,
-78.98500799999998,,Reach Westbound @ Reach Industrial Park,2447,,1,,2447,0,,2,44.105095,
-78.978346,,Reach Eastbound @ North Port,2448,,1,,2448,0,,2,44.106497,
-78.977997,,Reach Westbound @ North Port,2449,,1,,2449,0,,2,44.106635,
-78.937106,,Anderson Southbound @ Kilbride,245,,1,,245,0,,2,43.917513,
-78.961905,,Reach Eastbound @ Sherrington,2450,,1,,2450,0,,2,44.110073,
-78.961945,,Reach Westbound @ Sherrington,2451,,1,,2451,0,,2,44.110199,
-78.957515,,Reach Eastbound @ Old Simcoe,2452,,1,,2452,0,,2,44.11102600000001,
-78.951756,,Reach Eastbound @ Simcoe,2453,,1,,2453,0,,2,44.1122,
-78.951684,,Reach Westbound @ Simcoe,2454,,1,,2454,0,,2,44.112316,
-78.957656,,Reach Westbound @ Old Simcoe,2455,,1,,2455,0,,2,44.111107,
-78.91001199999998,,Simcoe Northbound @ Steepleview (Columbus),2456,,1,,2456,0,,2,43.979501,
-78.911266,,Simcoe Northbound @ Columbus Road (Columbus),2457,,1,,2457,0,,2,43.982318,
-78.911351,,Simcoe Southbound @ Columbus Road (Columbus),2458,,1,,2458,0,,2,43.982203,
-78.910124,,Simcoe Southbound @ Westview (Columbus),2459,,1,,2459,0,,2,43.979472,
-78.936222,,Anderson Southbound @ Darren,246,,1,,246,0,,2,43.915405,
-78.925672,,Simcoe Northbound @ Raglan Road (Raglan),2462,,1,,2462,0,,2,44.017775,
-78.924563,,Simcoe Northbound @ Snow Ridge,2463,,1,,2463,0,,2,44.024868,
-78.92478199999998,,Simcoe Southbound @ Snow Ridge,2464,,1,,2464,0,,2,44.024706,
-78.925944,,Simcoe Southbound @ Raglan Road (Raglan),2465,,1,,2465,0,,2,44.018378,
-78.95354168,,King Westbound @ Old Simcoe,2473,,1,,2473,0,,2,44.08405984,
-78.955184,,Old Simcoe Northbound @ Jeffrey,2475,,1,,2475,0,,2,44.089871,
-78.955344,,Old Simcoe Southbound @ Jeffrey,2476,,1,,2476,0,,2,44.090628,
-78.953711,,King Eastbound @ Old Simcoe,2478,,1,,2478,0,,2,44.083946,
-78.938356,,Curts Eastbound @ Port Perry Terminal,2491,,1,,2491,0,,1,44.10227900000001,
-78.954168,,Paxton Westbound at 451 Paxton (Lakeridge Health Port Perry),2498,,1,,2498,0,,2,44.104589,
-78.950117,,Simcoe Southbound @ Kellett,2500,,1,,2500,0,,2,44.110346,
-78.94889,,Simcoe Southbound @ Balsam,2501,,1,,2501,0,,2,44.107337,
-78.945102,,Scugog  Westbound @ Simcoe,2503,,1,,2503,0,,2,44.099916,
-78.950789,,Scugog Westbound @ Ottawa,2505,,1,,2505,0,,2,44.09877,
-78.955178,,Scugog Westbound @ Old Simcoe,2506,,1,,2506,0,,2,44.097862,
-78.955305,,Scugog Eastbound @ Old Simcoe,2509,,1,,2509,0,,2,44.09774800000001,
-78.951258,,Scugog Eastbound @ Ottawa,2510,,1,,2510,0,,2,44.098585,
-78.944804,,Scugog Eastbound @ Simcoe,2512,,1,,2512,0,,2,44.099892,
-78.948792,,Simcoe Northbound @ Balsam,2514,,1,,2514,0,,2,44.107457,
-78.95,,Simcoe Northbound @ Beech,2515,,1,,2515,0,,2,44.110223,
-78.95578399999998,,Old Simcoe Southbound @ Scugog Street,2516,,1,,2516,0,,2,44.096969,
-78.955567,,Old Simcoe Southbound @ Victoria,2517,,1,,2517,0,,2,44.093814,
-79.084237,,Pickering Station,2549,,1,,2549,0,,1,43.831147,
-78.927052,,Anderson Southbound @ Manning,255,,1,,255,0,,2,43.89454,
-78.926119,,Anderson Southbound @ Maplewood,256,,1,,256,0,,2,43.892471,
-79.041346,,Ajax Station,2569,,1,,2569,0,,1,43.847679,
-78.925223,,Anderson Southbound @ Bradley,257,,1,,257,0,,2,43.890386,
-79.039484,,Fairall Eastbound @ Westney (West side stop),2574,,1,,2574,0,,2,43.846447,
-78.93794,,Whitby Station,2576,,1,,2576,0,,1,43.865496,
-78.923657,,Anderson Southbound @ Crawforth,258,,1,,258,0,,2,43.886829,
-78.886365,,Oshawa Station,2585,,1,,2585,0,,1,43.87066200000001,
-78.9229176,,Anderson Southbound @ Dundas,259,,1,,259,0,,2,43.8851472,
-78.877279,,Oshawa Centre Terminal,2595,,1,,2595,0,,2,43.88916900000001,
-78.93573499999998,,Consumers Eastbound @ Paisley,260,,1,,260,0,,2,43.867601,
-78.86528199999998,,King Eastbound @ Centre,2603,,1,,2603,0,,1,43.89714,
-78.8622203,,Gibb Westbound @ Centre,2604,,1,,2604,0,,2,43.89014370000001,
-78.93228,,Eastbound @ 187 Consumers,261,,1,,261,0,,2,43.867911,
-78.900295,,Westbound @ 1716 Victoria,262,,1,,262,0,,1,43.86729177,
-78.88778,,Wentworth Westbound @ Boundary (West side stop),265,,1,,265,0,,2,43.86166688,
-78.89276099999998,,Wentworth Westbound @ Forbes,266,,1,,266,0,,2,43.860563,
-78.897536,,Wentworth Westbound @ Scotia,267,,1,,267,0,,2,43.859508,
-78.9007,,Thickson Northbound @ Wentworth,268,,1,,268,0,,2,43.859,
-78.902289,,Thickson Northbound @ Tricont,269,,1,,269,0,,2,43.86266,
-78.903392,,Thickson Northbound @ Victoria,270,,1,,270,0,,2,43.865547,
-78.987629,,Taunton Westbound @ Coronation,2704,,1,,2704,0,,1,43.908291,
-78.986958,,Taunton Eastbound @ Coronation,2705,,1,,2705,0,,1,43.908217,
-78.980509,,Taunton Westbound @ Baycliff,2707,,1,,2707,0,,1,43.910014,
-79.0239972,,Taunton Westbound @ Gillett,2708,,1,,2708,0,,2,43.89974380000001,
-78.846976,,Bloor Eastbound @ Ritson,2709,,1,,2709,0,,2,43.882318,
-78.895601,,Simcoe Northbound @ Conlin,2712,,1,,2712,0,,2,43.947746,
-78.944325,,Taunton Westbound @ Fallingbrook,2713,,1,,2713,0,,2,43.91836021000001,
-79.001192,,Bayly Eastbound @ Boone,2718,,1,,2718,0,,2,43.847742,
-78.908542,,Thickson Northbound @ Burns,272,,1,,272,0,,2,43.877058,
-79.056518,,Church Southbound @ Sherwood,2720,,1,,2720,0,,2,43.85655100000001,
-79.042882,,Taunton Eastbound @ Harwood,2729,,1,,2729,0,,2,43.895089,
-79.0431068,,Taunton Westbound @ Harwood,2730,,1,,2730,0,,2,43.8952726,
-78.94143037,,Simcoe Northbound @ Greenway,2733,,1,,2733,0,,2,44.09167138,
-78.942667,,Simcoe Northbound @ Vanedward,2734,,1,,2734,0,,2,44.09453,
-78.94645106485363,,Union Southbound @ Major,2735,,1,,2735,0,,2,44.09497910075369,
-78.94857054144276,,Union Southbound @ Robin Trail,2737,,1,,2737,0,,2,44.091193837375,
-78.95111799999998,,King Westbound @ Union,2739,,1,,2739,0,,2,44.08454,
-78.910842,,Thickson Northbound @ Nichol,274,,1,,274,0,,2,43.88211600000001,
-78.9509,,Union Northbound @ Hurd,2740,,1,,2740,0,,2,44.085418,
-78.948845,,Union Northbound @ Josephine,2741,,1,,2741,0,,2,44.09017,
-78.947064,,Union Northbound @ Major,2743,,1,,2743,0,,2,44.094297,
-78.94307499999998,,Simcoe Southbound @ Vanedward,2744,,1,,2744,0,,2,44.094828,
-78.94179818,,Simcoe Southbound @ Greenway,2745,,1,,2745,0,,2,44.09201925,
-78.950491,,Northbound @ 15929 Simcoe St,2749,,1,,2749,0,,2,44.111357,
-78.911801,,Northbound @ 35 Thickson,275,,1,,275,0,,2,43.884288,
-78.912944,,Thickson Northbound @ Dundas,276,,1,,276,0,,2,43.88712300000001,
-78.91350799999998,,Thickson Northbound @ Crawforth,277,,1,,277,0,,2,43.88843361,
-78.914804,,Thickson Northbound @ Pine Hills,278,,1,,278,0,,2,43.89153000000001,
-78.915756,,Thickson Northbound @ Dalton,279,,1,,279,0,,2,43.893721,
-78.941649,,Garden Southbound @ Kenneth Hobbs,28,,1,,28,0,,2,43.902996,
-78.918233,,Thickson Northbound @ Canadian Oaks,281,,1,,281,0,,2,43.899509,
-78.92006499999998,,Thickson Northbound @ Rossland (South Side Stop),283,,1,,283,0,,2,43.903729,
-78.940938,,Southbound @ 3088 Garden,29,,1,,29,0,,2,43.901353,
-78.925599,,Thickson Northbound @ Bach,290,,1,,290,0,,2,43.916314,
-78.9267847,,Thickson Northbound @ Cathedral,292,,1,,292,0,,2,43.919129,
-78.917972,,Garrard Southbound @ Griffen,293,,1,,293,0,,2,43.92320500000001,
-78.917227,,Garrard Southbound @ Shore,294,,1,,294,0,,2,43.921498,
-78.91538799999998,,Garrard Southbound @ Dryden,295,,1,,295,0,,2,43.917352,
-78.914092,,Garrard Southbound @ Rolling Acres,296,,1,,296,0,,2,43.914403,
-78.9130924,,Garrard Southbound @ Donald Wilson,297,,1,,297,0,,2,43.9121379,
-78.912156,,Garrard Southbound @ Fencerow,298,,1,,298,0,,2,43.910044,
-78.93967,,Garden Southbound @ Rossland (Durham Region Headquarters),30,,1,,30,0,,2,43.898752,
-78.910619,,Garrard Southbound @ Rossland,300,,1,,300,0,,2,43.905952,
-79.144548,,Waterford Westbound @ Woodview,3001,,1,,3001,0,,2,43.820346,
-79.140253,,Waterford Eastbound @ Forestview,3004,,1,,3004,0,,2,43.820443,
-79.046606,,Ravenscroft Northbound @ Daniels,3014,,1,,3014,0,,2,43.86326600000001,
-78.90922,,Garrard Southbound @ Parkview,302,,1,,302,0,,2,43.90280914,
-78.907942,,Garrard Southbound @ Gadsby,303,,1,,303,0,,2,43.899855,
-79.026786,,Salem Southbound @ Thackery,3038,,1,,3038,0,,2,43.88831017,
-79.026599,,Salem Northbound @ Gillett,3039,,1,,3039,0,,2,43.888491,
-78.906976,,Garrard Southbound @ Manning,304,,1,,304,0,,2,43.89760603,
-79.021938,,Salem Northbound @ Harper Hill,3041,,1,,3041,0,,2,43.88440700000001,
-79.019056,,Salem Southbound @ Rossland,3042,,1,,3042,0,,1,43.88210500000001,
-79.018414,,Salem Northbound @ Rossland,3043,,1,,3043,0,,2,43.881461,
-79.026951,,Williamson Eastbound @ Kirk,3044,,1,,3044,0,,2,43.893784,
-79.026201,,Williamson Westbound @ Sergeant,3045,,1,,3045,0,,2,43.894659,
-79.005762,,Pickering Beach Northbound @ Bayly,3048,,1,,3048,0,,1,43.846466,
-79.006791,,Salem Northbound @ Lord,3049,,1,,3049,0,,2,43.849311,
-79.007221,,Salem Southbound @ Lord,3052,,1,,3052,0,,2,43.849663,
-79.00620876374902,,Salem Southbound @ Bayly,3053,,1,,3053,0,,1,43.84686809732681,
-79.00602185445216,,Pickering Beach Southbound @ Michaelman,3054,,1,,3054,0,,2,43.84421074545585,
-79.00649,,Pickering Beach Southbound @ Hickman,3055,,1,,3055,0,,2,43.842824,
-79.006118,,Pickering Beach Southbound @ Emperor,3056,,1,,3056,0,,1,43.840676,
-79.004638,,Pickering Beach Southbound @ Foord,3057,,1,,3057,0,,2,43.837128,
-79.003576,,Southbound @ 722 Pickering Beach,3058,,1,,3058,0,,2,43.834673,
-79.00228199999998,,Pickering Beach Southbound @ Rollo,3059,,1,,3059,0,,1,43.831646,
-78.9927232,,Eastbound @ 509 Bayly,3060,,1,,3060,0,,2,43.8495633,
-78.989176,,Bayly Eastbound @ Audley,3061,,1,,3061,0,,1,43.850332,
-78.987917,,Audley Southbound @ Keywood,3062,,1,,3062,0,,2,43.848222,
-78.986321,,Audley Southbound @ Sharplin,3063,,1,,3063,0,,2,43.84292,
-78.986706,,Audley Southbound @ Holloway,3064,,1,,3064,0,,2,43.836116,
-78.985326,,Audley Southbound @ Ashbury,3066,,1,,3066,0,,2,43.832312,
-78.991383,,Ashbury Westbound @ Shoal Point,3067,,1,,3067,0,,2,43.83294,
-78.99938,,Range Line Eastbound @ Poplar,3068,,1,,3068,0,,2,43.828856,
-79.032817,,Lake Driveway Westbound @ Westney,3074,,1,,3074,0,,1,43.828777,
-79.033125,,Lake Driveway Southbound @ Vale,3075,,1,,3075,0,,2,43.826381,
-79.034343,,Lake Driveway Southbound @ Hawkins,3076,,1,,3076,0,,2,43.823696,
-79.022861,,Finley Northbound @ Burden,3080,,1,,3080,0,,2,43.821367,
-79.014208,,Harwood Southbound @ Windebanks,3083,,1,,3083,0,,2,43.828548,
-79.00769,,Clover Ridge Eastbound @ Crawford,3085,,1,,3085,0,,2,43.8271,
-79.00429099999998,,Clover Ridge Eastbound @ Clarke,3086,,1,,3086,0,,2,43.829813,
-79.014244,,Dreyer Westbound @ Harwood,3089,,1,,3089,0,,2,43.83109300000001,
-78.91623869999998,,Thickson Northbound @ Manning,309,,1,,309,0,,2,43.8948175,
-79.022498,,Northbound @ 574 Monarch,3096,,1,,3096,0,,2,43.836801,
-79.02412,,Monarch Northbound @ Tragunna,3097,,1,,3097,0,,2,43.84052,
-78.938877,,Garden Southbound @ Bassett,31,,1,,31,0,,2,43.896968,
-78.915889,,Thickson Southbound @ Dalton,310,,1,,310,0,,2,43.893474,
-78.950286,,Victoria Eastbound @ Bayside Gate,3105,,1,,3105,0,,2,43.858814,
-78.92341399999998,,Thickson Northbound @ Fieldnest,3106,,1,,3106,0,,2,43.911379,
-78.924456,,Thickson Northbound @ Dryden,3107,,1,,3107,0,,2,43.913835,
-78.84632,,Ritson Southbound @ Bloor,3109,,1,,3109,0,,2,43.883063,
-78.915149,,Thickson Southbound @ Pine Hills,311,,1,,311,0,,2,43.89187877,
-78.844802,,Ritson Southbound @ Conant,3110,,1,,3110,0,,2,43.87956,
-78.82801,,Colonel Sam Westbound @ Farewell,3113,,1,,3113,0,,2,43.87933000000001,
-78.82968003226307,,Farewell Northbound @ Raleigh,3114,,1,,3114,0,,1,43.88279606653353,
-78.8557913,,Southbound @ 206 Ritson,3115,,1,,3115,0,,2,43.9039406,
-78.855635,,Northbound @ 205 Ritson,3116,,1,,3116,0,,2,43.904205,
-78.854433,,Ritson Southbound @ Bond,3117,,1,,3117,0,,2,43.901042,
-78.854417,,Ritson Northbound @ Richmond,3118,,1,,3118,0,,2,43.901499,
-78.91385,,Thickson Southbound @ Crawforth,312,,1,,312,0,,2,43.88874243,
-78.847296,,Wilson Southbound @ Adelaide,3123,,1,,3123,0,,2,43.909548,
-78.84907667343516,,Wilson Southbound @ Hillcroft,3125,,1,,3125,0,,2,43.91355036312938,
-78.848778,,Wilson Northbound @ Hillcroft,3126,,1,,3126,0,,2,43.913236,
-78.893451,,Britannia Eastbound @ Bridle,3128,,1,,3128,0,,2,43.955878,
-78.913195,,Thickson Southbound @ Dundas,313,,1,,313,0,,2,43.88721867000001,
-78.857426,,Conlin Eastbound @ Harmony,3132,,1,,3132,0,,2,43.95665300000001,
-78.845803,,Grandview Northbound @ Woodstream,3136,,1,,3136,0,,2,43.955852,
-78.912122,,Southbound @ 44 Thickson,314,,1,,314,0,,2,43.884433,
-78.6998376,,Baseline Westbound @ West Side Drive,3141,,1,,3141,0,,2,43.89572350000001,
-78.7064451,,Aspen Springs Eastbound @ West Side Drive,3143,,1,,3143,0,,2,43.9026426,
-78.7032401,,Aspen Springs Eastbound @ Fry,3144,,1,,3144,0,,2,43.9051647,
-78.706956,,Green Northbound @ Remmington,3145,,1,,3145,0,,2,43.897686,
-78.7086273836003,,Green Northbound @ Aspen Springs,3146,,1,,3146,0,,2,43.9014706787916,
-78.681484,,Liberty Northbound @ Wellington,3149,,1,,3149,0,,2,43.91361100000001,
-78.911373,,Thickson Southbound @ Nichol,315,,1,,315,0,,2,43.882767,
-78.683319,,Liberty Northbound @ Concession,3150,,1,,3150,0,,2,43.917844,
-78.678888,,Concession Eastbound @ Trudeau,3151,,1,,3151,0,,2,43.91926500000001,
-78.685434,,Longworth Westbound @ Swindells,3154,,1,,3154,0,,2,43.93118,
-78.6893809,,Liberty Northbound @ Freeland,3155,,1,,3155,0,,2,43.93182190000001,
-78.909859,,Thickson Southbound @ Long,316,,1,,316,0,,2,43.879377,
-78.673813,,Mearns Northbound @ Concession,3161,,1,,3161,0,,2,43.921138,
-78.712264,,Green Northbound @ Highway 2 (North side stop),3163,,1,,3163,0,,2,43.909994,
-78.711662,,Green Southbound @ South Of Highway 2,3165,,1,,3165,0,,2,43.90821300000001,
-78.699429,,Bowmanville Ave Southbound @ Hartwell,3167,,1,,3167,0,,2,43.904744,
-78.908946,,Thickson Southbound @ Burns,317,,1,,317,0,,2,43.87764539,
-78.702278,,Baseline Westbound @ Millburn,3170,,1,,3170,0,,2,43.895232,
-78.7100851889842,,Green Northbound @ Clarington,3171,,1,,3171,0,,2,43.9048372717572,
-78.710404,,Green Southbound @ Boswell,3172,,1,,3172,0,,2,43.905223,
-78.688411,,Longworth Westbound @ Liberty,3173,,1,,3173,0,,2,43.930322,
-78.854111,,Wilson Northbound @ Attersley,3178,,1,,3178,0,,2,43.925753,
-78.854372,,Wilson Southbound @ Attersley,3179,,1,,3179,0,,2,43.926015,
-78.902447,,Thickson Southbound @ Tricont,318,,1,,318,0,,2,43.86262,
-78.899945,,Wentworth Eastbound @ Thickson,319,,1,,319,0,,2,43.858818,
-78.897457,,Wentworth Eastbound @ McEwen,320,,1,,320,0,,2,43.859341,
-78.9078341,,Consumers Westbound @ Thickson,321,,1,,321,0,,2,43.8723866,
-78.91304599999998,,Consumers Westbound @ Sunray,322,,1,,322,0,,2,43.870879,
-79.115221,,Franklin Northbound @ Reach,3224,,1,,3224,0,,2,44.10559400000001,
-78.866981,,Gibb Westbound @ Nassau,3227,,1,,3227,0,,2,43.889102,
-78.86610253462884,,Gibb Eastbound @ Nassau,3228,,1,,3228,0,,2,43.88919421477236,
-79.055896,,Church Northbound @ Sherwood,3229,,1,,3229,0,,2,43.855437,
-78.91680852279504,,Consumers Westbound @ Hopkins,323,,1,,323,0,,2,43.87007660488088,
-79.014381,,Harwood Northbound @ Dreyer,3231,,1,,3231,0,,1,43.830787,
-78.675239,,Mearns Northbound @ Apple Blossom,3249,,1,,3249,0,,2,43.924495,
-78.676991,,Mearns Northbound @ Sprucewood,3250,,1,,3250,0,,2,43.928385,
-78.682305,,Longworth Westbound @ Rickaby,3251,,1,,3251,0,,2,43.93205600000001,
-79.012367,,Clover Ridge Eastbound @ Andrea,3253,,1,,3253,0,,1,43.82622,
-78.9237719,,Consumers Westbound @ Cannon,326,,1,,326,0,,2,43.8689872,
-78.83800599999998,,Dean Westbound @ Wilson,3262,,1,,3262,0,,2,43.887869,
-78.841289,,Dean Northbound @ Sedan,3263,,1,,3263,0,,2,43.888306,
-79.009521,,Salem Northbound @ Achilles,3265,,1,,3265,0,,2,43.85314000000001,
-79.00961840932924,,Salem Southbound @ Achilles,3266,,1,,3266,0,,2,43.85275219675408,
-78.866844,,Ritson Northbound @ Beatrice (North stop),3269,,1,,3269,0,,2,43.930147,
-78.9286565,,Consumers Westbound @ Garden,327,,1,,327,0,,2,43.8682969,
-78.867734,,Ritson Northbound @ Pentland,3270,,1,,3270,0,,2,43.93206,
-78.868826,,Ritson Northbound @ Taunton,3271,,1,,3271,0,,1,43.934727,
-78.676347,,Liberty Northbound @ Baseline,3277,,1,,3277,0,,2,43.901872,
-78.67878,,Liberty Northbound @ Jane,3278,,1,,3278,0,,2,43.90737,
-78.674384,,Prince Eastbound @ Simpson,3279,,1,,3279,0,,2,43.909304,
-78.931766,,Westbound @ 180 Consumers,328,,1,,328,0,,2,43.868088,
-78.668219,,Lake Eastbound @ East Shore,3289,,1,,3289,0,,2,43.89826200000001,
-78.934571,,Consumers Westbound @ Paisley,329,,1,,329,0,,2,43.868016,
-79.03796199999998,,Rossland Westbound @ Seggar,3294,,1,,3294,0,,2,43.87746400000001,
-79.038698,,Rossland Eastbound @ Seggar,3295,,1,,3295,0,,2,43.877187,
-79.058372,,Rossland Westbound @ Harkins,3296,,1,,3296,0,,2,43.87213100000001,
-78.929162,,Consumers Eastbound @ Garden,330,,1,,330,0,,2,43.86800980000001,
-78.965222,,Highway 7A Westbound @ SmartCentres Port Perry,3300,,1,,3300,0,,1,44.094684,
-79.0334,,Rossland Eastbound @ Woodcock,3302,,1,,3302,0,,2,43.878356,
-79.0275635,,Rossland Eastbound @ Harwood,3314,,1,,3314,0,,2,43.8796476,
-79.026765,,Rossland Westbound @ Harwood,3315,,1,,3315,0,,2,43.880023,
-78.924038,,Consumers Eastbound @ Cannon,332,,1,,332,0,,2,43.868802,
-79.0418045,,Westney Southbound @ Kingston (South side stop),3322,,1,,3322,0,,2,43.8568676,
-78.94730861,,Simcoe Southbound @ Queen,3339,,1,,3339,0,,2,44.10364003,
-78.91860699999998,,Eastbound @ 107 Consumers,334,,1,,334,0,,2,43.86960100000001,
-78.94709667801564,,Simcoe Northbound @ Queen,3340,,1,,3340,0,,2,44.10351827820833,
-78.852739,,Wilson Northbound @ Terrace,3341,,1,,3341,0,,2,43.9226613,
-78.85286499999998,,Wilson Southbound @ Terrace,3342,,1,,3342,0,,2,43.922588,
-78.8556,,Wilson Northbound @ Tiffany,3343,,1,,3343,0,,2,43.929131,
-78.855818,,Wilson Southbound @ Tiffany,3344,,1,,3344,0,,2,43.92931,
-78.6952935,,Baseline Westbound @ Martin,3345,,1,,3345,0,,2,43.8967609,
-78.711744,,Green Northbound @ Highway 2 (South side stop),3346,,1,,3346,0,,2,43.9087386,
-78.7090942,,Clarington Boulevard Southbound @ Stevens,3347,,1,,3347,0,,1,43.9129222,
-78.9128184418275,,Consumers Eastbound @ Sunray,335,,1,,335,0,,2,43.87071339196998,
-78.905928,,Britannia Westbound @ Kentucky Derby,3366,,1,,3366,0,,2,43.95470000000001,
-79.077861,,Brock Road Southbound @ Major Oaks,3367,,1,,3367,0,,1,43.85522000000001,
-79.085714,,Brock Road Southbound @ Dersan,3368,,1,,3368,0,,1,43.874489,
-78.905592,,Stellar Eastbound @ Thickson,337,,1,,337,0,,2,43.872706,
-78.92400139999998,,Dryden Westbound @ Thickson,3409,,1,,3409,0,,2,43.9143679,
-78.922324,,Thickson Southbound @ Winterberry,3410,,1,,3410,0,,2,43.908294,
-78.920688,,Thickson Southbound @ Rossland,3411,,1,,3411,0,,2,43.904494,
-78.9184387,,Thickson Southbound @ Marta,3413,,1,,3413,0,,2,43.8994523,
-78.91639499999998,,Thickson Southbound @ Manning,3415,,1,,3415,0,,2,43.894635,
-78.903084,,Garrard Northbound @ Dundas,3416,,1,,3416,0,,2,43.88915200000001,
-78.903248,,Garrard Southbound @ Dundas,3417,,1,,3417,0,,2,43.88901400000001,
-78.90464,,Garrard Southbound @ Burnage,3419,,1,,3419,0,,2,43.89232,
-78.905268,,Stellar Westbound @ Thickson,342,,1,,342,0,,2,43.87293600000001,
-78.91904,,Dryden Westbound @ Bakerville,3420,,1,,3420,0,,2,43.91571,
-78.92186,,Dryden Westbound @ Waller,3421,,1,,3421,0,,2,43.91489,
-78.90185,,Britannia Westbound @ Thoroughbred,3422,,1,,3422,0,,2,43.9557,
-78.90163,,Britannia Eastbound @ Thoroughbred,3423,,1,,3423,0,,2,43.9555,
-78.8990682,,Kendalwood Northbound @ Sawdon,343,,1,,343,0,,2,43.88010220000001,
-79.06307049999998,,Rossland Eastbound @ Church,3430,,1,,3430,0,,2,43.8709498,
-79.068303,,Rossland Eastbound @ Shell,3431,,1,,3431,0,,2,43.870787,
-79.068386,,Rossland Westbound @ Shell,3432,,1,,3432,0,,2,43.870936,
-79.072756,,Rossland Westbound @ Seagrave,3433,,1,,3433,0,,2,43.870129,
-79.073729,,Rossland Eastbound @ Riverside,3434,,1,,3434,0,,2,43.869703,
-79.079724,,Rossland Eastbound @ Southcott,3435,,1,,3435,0,,2,43.868324,
-78.8998565,,Kendalwood Northbound @ Broadview,344,,1,,344,0,,2,43.8818189,
-78.9014091,,Kendalwood Northbound @ Northview,345,,1,,345,0,,2,43.88518710000001,
-78.904566,,Garrard Northbound @ Burnage,346,,1,,346,0,,2,43.892441,
-78.906543,,Garrard Northbound @ Manning,348,,1,,348,0,,2,43.896954,
-78.907678,,Garrard Northbound @ Forest,349,,1,,349,0,,2,43.899542,
-78.908666,,Garrard Northbound @ Westwood,350,,1,,350,0,,2,43.901785,
-78.954288,,Paxton Eastbound at 462 Paxton (Lakeridge Health Port Perry),3506,,1,,3506,0,,2,44.104482,
-79.079043,,Rossland Westbound @ Southcott,3510,,1,,3510,0,,2,43.868662,
-79.144213,,Altona Northbound @ Finch,3515,,1,,3515,0,,2,43.834759,
-79.143877,,Altona Southbound @ Shadow,3516,,1,,3516,0,,2,43.83375,
-78.854544,,Harmony Northbound @ Greenhill,3517,,1,,3517,0,,2,43.951841,
-78.854888,,Harmony Southbound @ Greenhill,3518,,1,,3518,0,,2,43.951249,
-78.910552,,Garrard Northbound @ Rossland,352,,1,,352,0,,1,43.906128,
-78.911592,,Garrard Northbound @ Pogson,353,,1,,353,0,,2,43.909057,
-78.87242871207518,,Taunton Westbound @ Mary,3531,,1,,3531,0,,2,43.93451980299271,
-78.87324,,Taunton Eastbound @ Mary,3532,,1,,3532,0,,2,43.93408,
-78.87956,,Taunton Westbound @ Simcoe,3533,,1,,3533,0,,1,43.93288,
-78.87799,,Taunton Eastbound @ Simcoe,3534,,1,,3534,0,,1,43.93301000000001,
-78.89864596744778,,Britannia Westbound @ Simcoe,3535,,1,,3535,0,,2,43.95638712467473,
-78.89646999999998,,Britannia Westbound @ Steeplechase,3537,,1,,3537,0,,2,43.95653,
-78.912559,,Garrard Northbound @ Donald Wilson,354,,1,,354,0,,2,43.91124,
-78.891015,,Conlin Eastbound @ Bridle,3541,,1,,3541,0,,2,43.949,
-78.896877,,Simcoe Southbound @ Conlin,3542,,1,,3542,0,,2,43.94919,
-78.9725,,Carnwith Westbound @ Bayern,3543,,1,,3543,0,,2,43.96223,
-78.97506,,Carnwith Westbound @ Darius Harns,3544,,1,,3544,0,,2,43.96165,
-78.96784,,Carnwith Westbound @ Montgomery,3545,,1,,3545,0,,2,43.9624,
-78.95911,,Carnwith Westbound @ Baldwin,3548,,1,,3548,0,,2,43.9668,
-78.9624,,Baldwin Southbound @ Winchester,3549,,1,,3549,0,,2,43.95347000000001,
-78.913659,,Garrard Northbound @ Weldon,355,,1,,355,0,,2,43.913729,
-79.06323,,Rossland Westbound @ Church,3550,,1,,3550,0,,2,43.87116000000001,
-78.87257,,Ritson Southbound @ Luple,3551,,1,,3551,0,,2,43.94279,
-78.77812,,Courtice Northbound @ Highway 2,3553,,1,,3553,0,,2,43.91268,
-78.98729,,Audley Southbound @ Denny,3554,,1,,3554,0,,2,43.84519,
-78.8997537673666,,Simcoe Southbound @ Britannia,3556,,1,,3556,0,,1,43.95564229526925,
-78.89949,,Simcoe Northbound @ Britannia,3557,,1,,3557,0,,1,43.95583,
-78.914815,,Garrard Northbound @ Dryden,356,,1,,356,0,,2,43.916354,
-79.07553726765236,,Brock Road Northbound @ Finch,3560,,1,,3560,0,,2,43.85045080317794,
-78.832953,,Wentworth Westbound @ Wilson,3562,,1,,3562,0,,2,43.87795,
-78.837602,,Wentworth Westbound @ Nelson,3563,,1,,3563,0,,2,43.876669,
-78.838196,,Wentworth Eastbound @ Nelson,3564,,1,,3564,0,,2,43.876379,
-78.84196799999998,,Wentworth Westbound @ Ritson,3565,,1,,3565,0,,2,43.875698,
-78.841977,,Wentworth Eastbound @ Ritson,3566,,1,,3566,0,,2,43.87551,
-78.853061,,Simcoe Southbound @ Erie,3567,,1,,3567,0,,2,43.878204,
-78.849958,,Simcoe Southbound @ Whiting,3569,,1,,3569,0,,2,43.876637,
-78.84462499999998,,Simcoe Southbound @ Wentworth,3570,,1,,3570,0,,1,43.873879,
-79.092628,,Zents Westbound @ Tillings,3572,,1,,3572,0,,2,43.878735,
-79.09144999999998,,Tillings Southbound @ Scenic Lane,3573,,1,,3573,0,,2,43.874998,
-78.9057703,,Britannia Eastbound @ Kentucky Derby,3579,,1,,3579,0,,2,43.9545412,
-78.9106833,,Britannia Westbound @ Windfields Farms,3580,,1,,3580,0,,2,43.9537361,
-78.94381,,Gordon Southbound @ Whitby Shores Greenway,3584,,1,,3584,0,,1,43.8587,
-78.94298,,Southbound @ 300 Gordon (Lakeridge Health Whitby),3585,,1,,3585,0,,2,43.85673,
-78.868142,,Park Southbound @ Hillside,3586,,1,,3586,0,,2,43.882051,
-78.868386,,Park Northbound @ Hillside,3587,,1,,3587,0,,2,43.881571,
-78.944599,,Ontario Shores (East Entrance),3588,,1,,3588,0,,2,43.849206,
-79.190831,,Centennial Circle,3589,,1,,3589,0,,2,43.787494,
-79.114142,,Kingston Westbound @ Delta,3590,,1,,3590,0,,2,43.820127,
-78.90513,,Windfields Farm Eastbound @ Thoroughbred,3591,,1,,3591,0,,1,43.962738,
-78.909043,,Windfields Farm Westbound @ Kentucky Derby,3592,,1,,3592,0,,2,43.962037,
-78.909473,,Windfields Farm Eastbound @ Kentucky Derby,3600,,1,,3600,0,,2,43.961779,
-78.914635,,Windfields Farm Northbound @ Bandsman,3601,,1,,3601,0,,2,43.959762,
-78.913442,,Windfields Farm Northbound @ Equestrian,3602,,1,,3602,0,,2,43.956693,
-78.904278,,Windfields Farm Westbound @ Thoroughbred,3603,,1,,3603,0,,1,43.963141,
-78.914539,,Windfields Farm Southbound @ Stallion,3604,,1,,3604,0,,2,43.96031,
-78.913582,,Windfields Farm Southbound @ Dress Circle,3605,,1,,3605,0,,2,43.956586,
-78.894075,,Simcoe Northbound @ Founders,3608,,1,,3608,0,,1,43.94666800000001,
-78.94370499999998,,Thickson Northbound @ Winchester,3617,,1,,3617,0,,1,43.958227,
-78.945277,,Thickson Northbound @ Blackfriar,3618,,1,,3618,0,,2,43.961855,
-78.94585499999998,,Anderson Northbound @ Settlers,3619,,1,,3619,0,,2,43.953911,
-78.9190382,,Taunton Westbound @ Garrard,362,,1,,362,0,,2,43.9239959,
-78.96136799999998,,Baldwin Southbound @ Cassels,3627,,1,,3627,0,,2,43.955959,
-78.94713299999998,,Anderson Southbound @ Winchester,3628,,1,,3628,0,,2,43.956227,
-78.94601,,Anderson Southbound @ Duggan,3629,,1,,3629,0,,2,43.95373,
-78.92178700704784,,Taunton Westbound @ Tom Edwards,363,,1,,363,0,,2,43.92340655801685,
-78.90292553028826,,Simcoe Northbound @ Windfields Farm,3633,,1,,3633,0,,1,43.96374223342672,
-79.12059499999998,,Brock Eastbound @ Main,3635,,1,,3635,0,,2,44.109315,
-78.830067,,Harmony Southbound @ Olive,3636,,1,,3636,0,,1,43.895486,
-78.92679099999998,,Taunton Westbound @ Thickson,364,,1,,364,0,,2,43.922224,
-78.9308059,,Taunton Westbound @ Rivers Edge,365,,1,,365,0,,1,43.9212983,
-78.937201,,Taunton Westbound @ Anderson,366,,1,,366,0,,2,43.919855,
-78.9417529,,Westbound @ 440 Taunton,367,,1,,367,0,,1,43.91891420000001,
-78.95299799999998,,Taunton Westbound @ McKinney,369,,1,,369,0,,1,43.916453,
-78.9592671,,Taunton Westbound @ Valleywood,370,,1,,370,0,,2,43.91508420000001,
-78.966544,,Taunton Westbound @ Cochrane,371,,1,,371,0,,1,43.913312,
-78.976445,,Taunton Westbound @ Country Lane,372,,1,,372,0,,2,43.910955,
-78.9808378,,Taunton Eastbound @ Baycliffe,373,,1,,373,0,,1,43.9096849,
-78.97723999999998,,Taunton Eastbound @ Country Lane,374,,1,,374,0,,2,43.910527,
-78.960565,,Taunton Eastbound @ Valleywood,375,,1,,375,0,,2,43.914525,
-78.958357,,Taunton Eastbound @ Brock Street,376,,1,,376,0,,2,43.91501800000001,
-78.95252,,Taunton Eastbound @ Riverwood,377,,1,,377,0,,1,43.916349,
-78.9468906,,Taunton Eastbound @ Garden,378,,1,,378,0,,2,43.9175701,
-78.943813,,Eastbound @ 379 Taunton,379,,1,,379,0,,2,43.918238,
-78.9406966,,Eastbound @ 435 Taunton,380,,1,,380,0,,1,43.9188963,
-78.9379152,,Taunton Eastbound @ Anderson,381,,1,,381,0,,2,43.9195199,
-78.931424,,Taunton Eastbound @ Chatterson,382,,1,,382,0,,1,43.92088900000001,
-78.926841,,Taunton Eastbound @ Thickson,383,,1,,383,0,,2,43.921996,
-78.921678,,Taunton Eastbound @ Tom Edwards,384,,1,,384,0,,2,43.923214,
-78.91737,,Taunton Eastbound @ Garrard,385,,1,,385,0,,2,43.92414,
-78.902539,,Dundas Westbound @ Garrard,386,,1,,386,0,,1,43.888886,
-78.90900999999998,,Dundas Westbound @ Kathleen,387,,1,,387,0,,2,43.887427,
-78.914145,,Dundas Westbound @ Thickson,388,,1,,388,0,,1,43.886286,
-78.917045,,Dundas Westbound @ Bowman,389,,1,,389,0,,2,43.8856414,
-78.92200099999998,,Dundas Westbound @ Anderson,391,,1,,391,0,,1,43.884522,
-78.929034,,Dundas Westbound @ Craydon,393,,1,,393,0,,2,43.882884,
-78.931932,,Dundas Westbound @ Garden,394,,1,,394,0,,1,43.882244,
-78.936954,,Dundas Westbound @ Pine,396,,1,,396,0,,2,43.881084,
-78.941772,,Dundas Westbound @ Brock Street,398,,1,,398,0,,1,43.879998,
-78.946685,,Dundas Westbound @ Euclid,400,,1,,400,0,,2,43.878878,
-78.95152,,Dundas Westbound @ Cochrane,401,,1,,401,0,,1,43.877863,
-78.9562584,,Dundas Westbound @ Wellington,404,,1,,404,0,,2,43.8767817,
-78.961433,,Dundas Westbound @ McQuay,405,,1,,405,0,,1,43.875597,
-78.963955,,Dundas Westbound @ White Oaks,406,,1,,406,0,,2,43.875049,
-78.98098,,Dundas Westbound @ Halls,410,,1,,410,0,,2,43.87132,
-78.987092,,Kingston Westbound @ Lake Ridge,411,,1,,411,0,,2,43.869986,
-78.98701,,Kingston Eastbound @ Lake Ridge,412,,1,,412,0,,2,43.869794,
-78.98135,,Dundas Eastbound @ Halls,413,,1,,413,0,,2,43.87107000000001,
-78.96353499999998,,Dundas Eastbound @ White Oaks,417,,1,,417,0,,2,43.87498,
-78.9619208,,Dundas Eastbound @ Jeffery,418,,1,,418,0,,1,43.8753204,
-78.956299,,Dundas Eastbound @ Wellington,419,,1,,419,0,,2,43.876609,
-78.935434,,Victoria Westbound @ Brock Street,42,,1,,42,0,,2,43.862229,
-78.950632,,Dundas Eastbound @ Annes,422,,1,,422,0,,1,43.877818,
-78.946098,,Dundas Eastbound @ King,424,,1,,424,0,,2,43.87885,
-78.94241049999998,,Dundas Eastbound @ Brock Street,425,,1,,425,0,,1,43.8797255,
-78.938157,,Dundas Eastbound @ Hickory,427,,1,,427,0,,2,43.88066400000001,
-78.938856,,Victoria Westbound @ Henry,43,,1,,43,0,,2,43.86147716,
-78.93106899999998,,Dundas Eastbound @ Lupin,431,,1,,431,0,,1,43.88225,
-78.928486,,Dundas Eastbound @ Craydon,432,,1,,432,0,,2,43.882846,
-78.922742,,Dundas Eastbound @ Hopkins,434,,1,,434,0,,1,43.884171,
-78.903502,,Nichol Eastbound @ Kirby,438,,1,,438,0,,2,43.885654,
-78.901627,,Kendalwood Southbound @ Northview,439,,1,,439,0,,2,43.88534700000001,
-78.899482,,Kendalwood Southbound @ Sawdon,441,,1,,441,0,,2,43.880648,
-78.898906,,Kendalwood Southbound @ Burns,442,,1,,442,0,,2,43.87938,
-78.90375299999998,,Nichol Westbound @ Kirby,445,,1,,445,0,,2,43.885687,
-78.90648,,Nichol Westbound @ Springwood,446,,1,,446,0,,2,43.884234,
-78.909845,,Nichol Westbound @ Jubilee,447,,1,,447,0,,2,43.882875,
-78.91251099999998,,Nichol Westbound @ Thickson,448,,1,,448,0,,2,43.882509,
-78.91447599999998,,Northbound @ 155 Glen Hill,449,,1,,449,0,,2,43.88398140000001,
-78.949545,,Victoria Westbound @ Montecorte,45,,1,,45,0,,2,43.859114,
-78.916718,,Dundas Eastbound @ Glen Hill,450,,1,,450,0,,2,43.885523,
-78.911815,,Dundas Eastbound @ Thickson,451,,1,,451,0,,1,43.886613,
-78.909422,,Dundas Eastbound @ Kathleen,452,,1,,452,0,,2,43.887178,
-78.903884,,Dundas Eastbound @ Kendalwood,453,,1,,453,0,,1,43.888373,
-78.90711,,Rossland Westbound @ William Davidson,454,,1,,454,0,,2,43.907336,
-78.910464,,Rossland Westbound @ Garrard,455,,1,,455,0,,1,43.906573,
-78.916926,,Rossland Westbound @ Fencerow,457,,1,,457,0,,2,43.905041,
-78.91971599999998,,Rossland Westbound @ Thickson,458,,1,,458,0,,2,43.904395,
-78.930008,,Rossland Westbound @ Anderson,460,,1,,460,0,,2,43.90214933,
-78.9353815,,Rossland Westbound @ Bassett,461,,1,,461,0,,2,43.9009439,
-78.939886,,Rossland Westbound @ Garden (Durham Region Headquarters),462,,1,,462,0,,1,43.899906,
-78.944604,,Rossland Westbound @ Civic Centre Drive,464,,1,,464,0,,2,43.898832,
-78.956033,,Rossland Westbound @ Whitburn,467,,1,,467,0,,2,43.89627,
-78.95936399999998,,Rossland Westbound @ Cochrane,468,,1,,468,0,,2,43.895555,
-78.964817,,Rossland Westbound @ Country Lane,469,,1,,469,0,,1,43.89427381,
-78.978819,,Rossland Westbound @ McQuay,470,,1,,470,0,,1,43.891112,
-78.978273,,Rossland Eastbound @ McQuay,471,,1,,471,0,,1,43.891145,
-78.96458,,Rossland Eastbound @ Country Lane,472,,1,,472,0,,1,43.89412,
-78.959856,,Rossland Eastbound @ Cochrane,473,,1,,473,0,,2,43.895243,
-78.95613126641868,,Rossland Eastbound @ Redoak,474,,1,,474,0,,2,43.89609699482188,
-78.94953,,Rossland Eastbound @ Brock Street,476,,1,,476,0,,2,43.89743,
-78.944498,,Rossland Eastbound @ Civic Centre Drive,477,,1,,477,0,,2,43.898728,
-78.940539,,Rossland Eastbound @ Garden (Durham Region Headquarters),480,,1,,480,0,,1,43.899581,
-78.9356953,,Rossland Eastbound @ Bassett,481,,1,,481,0,,2,43.9006827,
-78.929591,,Rossland Eastbound @ Anderson,482,,1,,482,0,,2,43.902041,
-78.92099,,Rossland Eastbound @ Thickson,484,,1,,484,0,,2,43.9039,
-78.916718,,Rossland Eastbound @ Canadian Oaks,485,,1,,485,0,,2,43.904922,
-78.911489,,Rossland Eastbound @ Garrard,487,,1,,487,0,,1,43.906151,
-78.9069581,,Rossland Eastbound @ William Davidson,488,,1,,488,0,,2,43.9072446,
-78.961822,,Baldwin Northbound @ Roybrook,490,,1,,490,0,,2,43.951339,
-78.962199,,Baldwin Northbound @ Winchester,491,,1,,491,0,,2,43.953127,
-78.961218,,Baldwin Northbound @ Cassels,492,,1,,492,0,,1,43.95580300000001,
-78.946403,,Winchester Eastbound @ Anderson,497,,1,,497,0,,2,43.956651,
-78.94893399999998,,Carnwith Westbound @ Thickson,505,,1,,505,0,,2,43.968094,
-78.9528905,,Carnwith Westbound @ Croxall,506,,1,,506,0,,2,43.9673515,
-78.956391,,Carnwith Westbound @ Downey,507,,1,,507,0,,2,43.967171,
-78.9612058,,Campbell Eastbound @ Baldwin,511,,1,,511,0,,1,43.95703060000001,
-78.9653316,,Vipond Eastbound @ Montgomery,512,,1,,512,0,,2,43.9569741,
-78.9694672,,Vipond Eastbound @ Ferguson,513,,1,,513,0,,2,43.9560241,
-78.97358749999998,,Vipond Eastbound @ Sabrina,514,,1,,514,0,,2,43.9550968,
-78.945648,,Thickson Southbound @ Blackfriar,533,,1,,533,0,,2,43.96218,
-78.961834,,Baldwin Southbound @ Roybrook,535,,1,,535,0,,2,43.950765,
-78.892157,,Gibb Eastbound @ Tipperary,536,,1,,536,0,,2,43.883049,
-78.891938,,Gibb Westbound @ Tipperary,537,,1,,537,0,,2,43.8833,
-78.890887,,Thornton Northbound @ Donegal,539,,1,,539,0,,2,43.885866,
-78.892334,,Thornton Northbound @ Monaghan (Trent University Oshawa),541,,1,,541,0,,2,43.889148,
-78.8933631,,Thornton Northbound @ King,542,,1,,542,0,,2,43.8913759,
-78.894577,,Thornton Northbound @ Castlegrove,543,,1,,543,0,,2,43.89427409000001,
-78.895259,,Northbound @ 185 Thornton,544,,1,,544,0,,2,43.895745,
-78.895698,,Thornton Southbound @ Adelaide (South side stop),559,,1,,559,0,,2,43.89628,
-78.894515,,Thornton Southbound @ Castlegrove,560,,1,,560,0,,2,43.89355735,
-78.8936936,,Thornton Southbound @ King,561,,1,,561,0,,2,43.8915529,
-78.891096,,Thornton Southbound @ Donegal,563,,1,,563,0,,2,43.886025,
-78.901066,,Rossland Eastbound @ Thornton,565,,1,,565,0,,2,43.908465,
-78.896541,,Rossland Eastbound @ Waverly,566,,1,,566,0,,2,43.909431,
-78.891435,,Rossland Eastbound @ Stevenson,567,,1,,567,0,,1,43.910505,
-78.886776,,Rossland Eastbound @ Gibbons,569,,1,,569,0,,2,43.911558,
-78.940748,,Southbound @ 652 Gordon,57,,1,,57,0,,2,43.851303,
-78.883718,,Rossland Eastbound @ Park,570,,1,,570,0,,2,43.912237,
-78.87504869999998,,Rossland Eastbound @ Christie,571,,1,,571,0,,2,43.9141525,
-78.8705428,,Rossland Eastbound @ Simcoe,573,,1,,573,0,,2,43.9151538,
-78.867671,,Rossland Eastbound @ Grierson,574,,1,,574,0,,2,43.915824,
-78.864739,,Rossland Eastbound @ Oshawa Boulevard,575,,1,,575,0,,2,43.916479,
-78.86071099999998,,Rossland Eastbound @ Ritson,576,,1,,576,0,,1,43.917332,
-78.856553,,Rossland Eastbound @ Central Park,577,,1,,577,0,,2,43.918411,
-78.945576,,Ontario Shores (West Entrance),58,,1,,58,0,,2,43.848198,
-78.852082,,Rossland Eastbound @ Wilson,581,,1,,581,0,,1,43.919467,
-78.84681,,Rossland Eastbound @ Camelot,582,,1,,582,0,,2,43.92071,
-78.843256,,Rossland Eastbound @ Harmony,583,,1,,583,0,,2,43.92152,
-78.841479,,Harmony Northbound @ Rossland (South side stop),584,,1,,584,0,,1,43.921583,
-78.8401886,,Rossland Westbound @ Harmony,585,,1,,585,0,,2,43.9223567,
-78.843935,,Rossland Westbound @ Gladfern,586,,1,,586,0,,2,43.921478,
-78.846996,,Rossland Westbound @ Attersley,587,,1,,587,0,,2,43.920769,
-78.850545,,Rossland Westbound @ Wilson,588,,1,,588,0,,1,43.91992900000001,
-78.94083999999998,,Eastbound @ 701 Gordon,59,,1,,59,0,,2,43.851033,
-78.854902,,Rossland Westbound @ Terrace,591,,1,,591,0,,2,43.918907,
-78.857043,,Rossland Westbound @ Central Park,592,,1,,592,0,,2,43.9184,
-78.862066,,Rossland Westbound @ Ritson,594,,1,,594,0,,1,43.917149,
-78.864393,,Rossland Westbound @ Oshawa Boulevard,595,,1,,595,0,,2,43.916682,
-78.866933,,Rossland Westbound @ Minto,596,,1,,596,0,,2,43.916114,
-78.87191799999998,,Rossland Westbound @ Simcoe,597,,1,,597,0,,2,43.915011,
-78.87505779999998,,Rossland Westbound @ Osler,598,,1,,598,0,,2,43.9142915,
-78.94271,,Northbound @ 300 Gordon (Lakeridge Health Whitby),60,,1,,60,0,,2,43.85644,
-78.885572,,Rossland Westbound @ Gibbons,600,,1,,600,0,,2,43.91198,
-78.89182099999998,,Rossland Westbound @ Stevenson,602,,1,,602,0,,1,43.910599,
-78.89659899999998,,Rossland Westbound @ Waverly,603,,1,,603,0,,2,43.909586,
-78.90127099999998,,Rossland Westbound @ Thornton,604,,1,,604,0,,2,43.908595,
-78.871221,,Simcoe Northbound @ Rossland,605,,1,,605,0,,2,43.91553600000001,
-78.94353,,Gordon Northbound @ Whitby Shores Greenway,61,,1,,61,0,,1,43.85839,
-78.93984371488986,,Victoria Eastbound @ Watson,63,,1,,63,0,,2,43.86111226967263,
-78.83853,,Grandview Northbound @ Ripley,638,,1,,638,0,,2,43.92317417000001,
-78.839057,,Grandview Northbound @ Corbetts,639,,1,,639,0,,2,43.92584,
-78.937137,,Victoria Eastbound @ Charles,64,,1,,64,0,,2,43.861691,
-78.838302,,Grandview Northbound @ Lindsay,640,,1,,640,0,,2,43.92727829,
-78.836174,,Grandview Northbound @ Grandlea,641,,1,,641,0,,2,43.92773900000001,
-78.834149,,Grandview Northbound @ Rathburn,642,,1,,642,0,,2,43.928737,
-78.836078,,Grandview Northbound @ Summitview (South stop),643,,1,,643,0,,2,43.933817,
-78.83658,,Grandview Northbound @ Summitview (North stop),644,,1,,644,0,,2,43.934956,
-78.837565,,Grandview Northbound @ Ridgemount,645,,1,,645,0,,2,43.93717,
-78.838566,,Grandview Northbound @ Glenbourne,646,,1,,646,0,,2,43.939427,
-78.839225,,Grandview Northbound @ Taunton,647,,1,,647,0,,2,43.94095,
-78.840306,,Grandview Northbound @ Park Ridge,648,,1,,648,0,,2,43.94367900000001,
-78.8414887,,Grandview Northbound @ Appleby,649,,1,,649,0,,2,43.9463599,
-78.87128199999998,,Simcoe Southbound @ Rossland,650,,1,,650,0,,2,43.914802,
-78.869478,,Simcoe Southbound @ Buckingham,652,,1,,652,0,,2,43.91044473,
-78.86736,,Simcoe Southbound @ Parkwood (Lakeridge Health Oshawa),654,,1,,654,0,,2,43.90554102,
-78.866169,,Simcoe Southbound @ Adelaide,655,,1,,655,0,,2,43.903,
-78.867222,,Centre Southbound @ William,657,,1,,657,0,,2,43.90002900000001,
-78.865958,,Centre Southbound @ King,659,,1,,659,0,,1,43.897281,
-78.863867,,Centre Southbound @ John,661,,1,,661,0,,2,43.893237,
-78.862638,,Centre Southbound @ Gibb,663,,1,,663,0,,2,43.890561,
-78.932752,,Brock Street Southbound @  Front,67,,1,,67,0,,2,43.857811,
-78.860193,,Simcoe Northbound @ Elm St,672,,1,,672,0,,2,43.890377,
-78.86185999999998,,Simcoe Northbound @ John,674,,1,,674,0,,2,43.894039,
-78.86413,,Simcoe Northbound @ Bond,677,,1,,677,0,,1,43.898769,
-78.865075,,Simcoe Northbound @ Colborne,678,,1,,678,0,,2,43.90088592,
-78.866139,,Simcoe Northbound @ Adelaide,679,,1,,679,0,,2,43.903302,
-78.927286,,Water Southbound @ Brock Street,68,,1,,68,0,,2,43.852405,
-78.867149,,Simcoe Northbound @ Parkwood (Lakeridge Health Oshawa),680,,1,,680,0,,2,43.905794,
-78.869386,,Simcoe Northbound @ Hillcroft,682,,1,,682,0,,2,43.9108,
-78.873688,,Simcoe Northbound @ Switzer,685,,1,,685,0,,2,43.921189,
-78.875722,,Simcoe Northbound @ Beatrice,687,,1,,687,0,,2,43.92581100000001,
-78.877303,,Simcoe Northbound @ Orchard View,689,,1,,689,0,,2,43.92918800000001,
-78.92278016016624,,Eastbound @ 495 Water,69,,1,,69,0,,2,43.85172664568551,
-78.880577,,Simcoe Northbound @ Glovers,693,,1,,693,0,,2,43.936894,
-78.884992,,Simcoe Northbound @ Selleck,695,,1,,695,0,,2,43.94030200000001,
-78.892132,,Simcoe Northbound @ Commencement,697,,1,,697,0,,2,43.945336,
-78.895505,,Ontario Tech / Durham College North Campus,698,,1,,698,0,,1,43.943641,
-78.89850293017099,,Simcoe Northbound @ Northern Dancer,705,,1,,705,0,,2,43.95356672765613,
-78.88919142270213,,Simcoe Southbound @ Niagara (North stop),706,,1,,706,0,,2,43.94308388677758,
-78.88622547469654,,Simcoe Southbound @ Niagara (South stop),707,,1,,707,0,,2,43.94097195519895,
-78.880108,,Simcoe Southbound @ Cayuga,710,,1,,710,0,,2,43.93549500000001,
-78.87899819,,Simcoe Southbound @ Taunton (south side stop),711,,1,,711,0,,1,43.93236901,
-78.877548,,Simcoe Southbound @ Orchard View,713,,1,,713,0,,2,43.929238,
-78.87371385962365,,Simcoe Southbound @ Switzer,716,,1,,716,0,,2,43.92072272355657,
-78.870727,,Adelaide Eastbound @ Kaiser,719,,1,,719,0,,2,43.902369,
-78.921558,,Northbound @ 201 South Blair,72,,1,,72,0,,2,43.857188,
-78.866944,,Adelaide Eastbound @ Simcoe,720,,1,,720,0,,2,43.903236,
-78.864226,,Adelaide Eastbound @ Kendal,721,,1,,721,0,,2,43.904587,
-78.859663,,Adelaide Eastbound @ Division,722,,1,,722,0,,2,43.905681,
-78.852306,,Adelaide Eastbound @ Central Park,724,,1,,724,0,,2,43.90771,
-78.848831,,Adelaide Eastbound @ Juliana,725,,1,,725,0,,2,43.908797,
-78.833889,,Adelaide Eastbound @ Blackthorn,729,,1,,729,0,,2,43.913364,
-78.831601,,Adelaide Eastbound @ Killdeer,730,,1,,730,0,,2,43.91376600000001,
-78.82607,,Adelaide Eastbound @ Fleetwood,732,,1,,732,0,,2,43.91408,
-78.82981599999998,,Adelaide Westbound @ Cranberry,743,,1,,743,0,,2,43.91399306000001,
-78.832061,,Adelaide Westbound @ Killdeer,744,,1,,744,0,,2,43.91383600000001,
-78.83508999999998,,Adelaide Westbound @ Blackthorn,745,,1,,745,0,,2,43.91318900000001,
-78.837002,,Adelaide Westbound @ Harmony,746,,1,,746,0,,1,43.912793,
-78.848885,,Adelaide Westbound @ Juliana,749,,1,,749,0,,2,43.908884,
-78.852635,,Adelaide Westbound @ Central Park,750,,1,,750,0,,2,43.907641,
-78.85562299999998,,Adelaide Westbound @ Ritson,751,,1,,751,0,,2,43.906731,
-78.859632,,Adelaide Westbound @ Division,752,,1,,752,0,,2,43.905788,
-78.864441,,Adelaide Westbound @ Kendal,753,,1,,753,0,,2,43.90463900000001,
-78.866193,,Adelaide Westbound @ Simcoe,754,,1,,754,0,,2,43.90394,
-78.870472,,Adelaide Westbound @ Frances,755,,1,,755,0,,2,43.902554,
-79.18719622104693,,Ellesmere Eastbound @ Military Trail,7698,,1,,7698,0,,2,43.78679553863803,
-78.817411,,Townline Southbound @ Lawson,773,,1,,773,0,,2,43.91553300000001,
-78.816214,,Townline Southbound @ Shankel,774,,1,,774,0,,2,43.91279500000001,
-78.814468,,Townline Southbound @ Nash,775,,1,,775,0,,2,43.90883,
-78.813964,,Townline Northbound @ Nash,786,,1,,786,0,,2,43.90814300000001,
-78.816023,,Townline Northbound @ Shankel,787,,1,,787,0,,2,43.912786,
-78.84174,,Grandview Southbound @ Appleby,799,,1,,799,0,,2,43.946346,
-78.84021,,Grandview Southbound @ Park Ridge,800,,1,,800,0,,2,43.94284300000001,
-78.83936199999998,,Grandview Southbound @ Taunton,801,,1,,801,0,,2,43.94091,
-78.83840499999998,,Grandview Southbound @ Glenbourne,802,,1,,802,0,,2,43.93880915,
-78.837723,,Grandview Southbound @ Ridgemount,803,,1,,803,0,,2,43.937222,
-78.83631699999998,,Grandview Southbound @ Summitview,804,,1,,804,0,,2,43.934055,
-78.834244,,Grandview Southbound @ Rathburn,805,,1,,805,0,,2,43.929324,
-78.836264,,Grandview Southbound @ Grandlea,806,,1,,806,0,,2,43.92785527,
-78.83848999999998,,Grandview Southbound @ Lindsay,807,,1,,807,0,,2,43.92730266,
-78.83938999999998,,Grandview Southbound @ Corbetts,808,,1,,808,0,,2,43.92517,
-78.8386276,,Grandview Southbound @ Rossland,809,,1,,809,0,,2,43.9229815,
-78.849628,,Harmony Northbound @ Taunton (North Side Stop),810,,1,,810,0,,2,43.940279,
-78.848752,,Harmony Terminal,812,,1,,812,0,,1,43.942102,
-78.847847,,Harmony Terminal Southbound @ Taunton,815,,1,,815,0,,2,43.94033300000001,
-78.85074299999998,,Delpark Homes Centre,817,,1,,817,0,,2,43.94750100000001,
-78.850735,,Taunton Westbound @ Harmony,823,,1,,823,0,,2,43.939344,
-78.854926,,Taunton Westbound @ Clearbrook,824,,1,,824,0,,2,43.9384,
-78.858528,,Taunton Westbound @ Wilson (East side stop),825,,1,,825,0,,1,43.93758900000001,
-78.865774,,Taunton Westbound @ Naples,827,,1,,827,0,,2,43.935955,
-78.8685493,,Taunton Westbound @ Ritson,828,,1,,828,0,,1,43.9354034,
-78.883392,,Taunton Westbound @ Somerville,829,,1,,829,0,,2,43.93202615,
-78.887894,,Taunton Westbound @ Patton,830,,1,,830,0,,2,43.931005,
-78.893897,,Westbound @ 418 Taunton,831,,1,,831,0,,2,43.9296729,
-78.89779906,,Taunton Westbound @ Stevenson,832,,1,,832,0,,1,43.92879302,
-78.907938,,Taunton Westbound @ Thornton,834,,1,,834,0,,1,43.9265,
-78.907676,,Taunton Eastbound @ Thornton,836,,1,,836,0,,1,43.92635520000001,
-78.902595,,Taunton Eastbound @ Keith Ross,837,,1,,837,0,,2,43.9274802,
-78.89858982,,Taunton Eastbound @ Airport,838,,1,,838,0,,1,43.92843734,
-78.888058,,Taunton Eastbound @ Northbrook,840,,1,,840,0,,2,43.930783,
-78.884417,,Taunton Eastbound @ Somerville,841,,1,,841,0,,2,43.93161,
-78.86738099999998,,Taunton Eastbound @ Ritson,843,,1,,843,0,,1,43.935424,
-78.865706,,Taunton Eastbound @ Naples,844,,1,,844,0,,2,43.935787,
-78.85835299999998,,Taunton Eastbound @ Wilson (East side stop),846,,1,,846,0,,1,43.937445,
-78.854571,,Taunton Eastbound @ Clearbrook,847,,1,,847,0,,2,43.938297,
-78.85238699999998,,Taunton Eastbound @ Harmony,848,,1,,848,0,,2,43.938789,
-78.885597,,Conlin Eastbound @ Avalon,853,,1,,853,0,,2,43.950158,
-78.881227,,Conlin Eastbound @ Manor,854,,1,,854,0,,2,43.95115100000001,
-78.877706,,Conlin Eastbound @ Ritson,855,,1,,855,0,,2,43.951962,
-78.869981,,Ritson Southbound @ Ormond,859,,1,,859,0,,2,43.937122,
-78.868973,,Ritson Southbound @ Taunton,861,,1,,861,0,,1,43.934373,
-78.868262,,Ritson Southbound @ Pentland,862,,1,,862,0,,2,43.932714,
-78.866915,,Ritson Southbound @ Beatrice,863,,1,,863,0,,2,43.929724,
-78.865798,,Ritson Southbound @ Oshawa Boulevard (North stop),864,,1,,864,0,,2,43.927268,
-78.864766,,Ritson Southbound @ Highgate,865,,1,,865,0,,2,43.92503569,
-78.864075,,Ritson Southbound @ Wildflower,866,,1,,866,0,,2,43.923364,
-78.863175,,Ritson Southbound @ Darcy,867,,1,,867,0,,2,43.92128128,
-78.861715,,Ritson Southbound @ Rossland,868,,1,,868,0,,1,43.917545,
-78.860639,,Ritson Southbound @ Oshawa Boulevard (South stop),869,,1,,869,0,,2,43.91508300000001,
-78.859886,,Ritson Southbound @ Hillcroft,870,,1,,870,0,,2,43.913394,
-78.856969,,Ritson Southbound @ Adelaide,872,,1,,872,0,,2,43.906697,
-78.856466,,Ritson Northbound @ Adelaide,879,,1,,879,0,,2,43.906068,
-78.85972599999998,,Ritson Northbound @ Hillcroft,881,,1,,881,0,,2,43.913421,
-78.860494,,Ritson Northbound @ Oshawa Boulevard (South stop),882,,1,,882,0,,2,43.915191,
-78.86149899999998,,Ritson Northbound @ Rossland,883,,1,,883,0,,1,43.917753,
-78.86217499999998,,Ritson Northbound @ Tulip,884,,1,,884,0,,2,43.919499,
-78.862948,,Ritson Northbound @ Darcy,885,,1,,885,0,,2,43.92126249,
-78.863791,,Northbound @ 881 Ritson,886,,1,,886,0,,2,43.92314600000001,
-78.864607,,Ritson Northbound @ Highgate,887,,1,,887,0,,2,43.925002,
-78.865643,,Ritson Northbound @ Oshawa Boulevard (North stop),888,,1,,888,0,,2,43.927335,
-78.866347,,Ritson Northbound @ Beatrice (South stop),889,,1,,889,0,,2,43.928913,
-78.941511,,Burns Westbound @ Centre,89,,1,,89,0,,2,43.87103,
-78.870106,,Ritson Northbound @ Ormond,892,,1,,892,0,,2,43.93767900000001,
-78.878549,,Conlin Westbound @ Ritson,896,,1,,896,0,,2,43.95187700000001,
-78.881159,,Conlin Westbound @ Manor,897,,1,,897,0,,2,43.951264,
-78.88532,,Conlin Westbound @ Avalon,898,,1,,898,0,,2,43.95035,
-78.944504401,,Burns Westbound @ Henry,90,,1,,90,0,,2,43.8703679,
-78.94369,,Victoria Westbound @ Gordon (Abilities Centre),90007,,1,,90007,0,,1,43.860468,
-78.804159,,Eastbound @ 1908 Colonel Sam,90014,,1,,90014,0,,2,43.876615,
-78.851395,,Simcoe Northbound @ Conant,90015,,1,,90015,0,,2,43.877563,
-79.067939,,Westbound @ 1766 Pickering Parkway,90016,,1,,90016,0,,2,43.84327300000001,
-78.69972199999998,,Scugog Southbound @ Bons,90034,,1,,90034,0,,2,43.930751,
-78.698374,,Scugog Southbound @ Somerscales,90035,,1,,90035,0,,2,43.927613,
-78.8507694,,Coldstream Eastbound @ Harmony,90038,,1,,90038,0,,2,43.944594,
-78.8508273,,Coldstream Westbound @ Harmony (East side stop),90040,,1,,90040,0,,2,43.9447913,
-78.852735,,Coldstream Westbound @ Harmony (West side stop),90041,,1,,90041,0,,2,43.94435514,
-78.856035,,Coldstream Westbound @ Pennel,90042,,1,,90042,0,,2,43.944835,
-78.857899,,Coldstream Westbound @ Clearbrook,90043,,1,,90043,0,,2,43.94557611,
-78.862296,,Coldstream Westbound @ Wilson,90044,,1,,90044,0,,2,43.946166,
-78.86431399999998,,Wilson Northbound @ Greenhill,90045,,1,,90045,0,,2,43.94900213,
-78.872409,,Coldstream Westbound @ Ritson,90050,,1,,90050,0,,2,43.944435,
-78.8686743,,Coldstream Eastbound @ Whitestone,90051,,1,,90051,0,,2,43.9451727,
-78.866106,,Coldstream Westbound @ Ormond,90052,,1,,90052,0,,2,43.94571,
-78.865092,,Coldstream Eastbound @ Ormond,90053,,1,,90053,0,,2,43.945539,
-78.862892,,Wilson Southbound @ Coldstream,90054,,1,,90054,0,,2,43.945316,
-78.860584,,Wilson Southbound @ Larry,90055,,1,,90055,0,,2,43.94023700000001,
-78.859533,,Wilson Southbound @ Taunton,90056,,1,,90056,0,,1,43.937886,
-78.85862899999998,,Southbound @ 1310 Wilson,90057,,1,,90057,0,,2,43.935634,
-78.849728,,Wilson Northbound @ Cavendish,90063,,1,,90063,0,,2,43.915302,
-78.849962,,Wilson Southbound @ Oakwood,90064,,1,,90064,0,,2,43.915645,
-78.8512777,,Wilson Northbound @ Rossland,90065,,1,,90065,0,,1,43.9190034,
-78.851912,,Wilson Southbound @ Rossland,90066,,1,,90066,0,,1,43.920439,
-78.861823,,Wilson Southbound @ Clearsky,90070,,1,,90070,0,,2,43.943005,
-78.894148,,Simcoe Southbound @ Founders,90076,,1,,90076,0,,1,43.94634257,
-78.844289,,Westbound @ 1340 Coldstream,90079,,1,,90079,0,,2,43.94630488,
-78.844471,,Eastbound @ 1321 Coldstream,90080,,1,,90080,0,,2,43.9461252,
-78.857147,,Wilson Southbound @ Beatrice,90083,,1,,90083,0,,2,43.932287,
-78.9471226,,Taunton Westbound @ Garden (East side stop),90088,,1,,90088,0,,2,43.9177648,
-78.9479702,,Burns Westbound @ Annes (East side stop),91,,1,,91,0,,2,43.8696061,
-78.868727,,Coldstream Westbound @ Northfield,910,,1,,910,0,,2,43.945257,
-79.020117,,Harwood Southbound @ Hunt,91000,,1,,91000,0,,2,43.847692,
-78.849298,,Harmony Southbound @ Taunton,911,,1,,911,0,,2,43.93885,
-78.84771499999998,,Harmony Southbound @ Grand Ridge,912,,1,,912,0,,2,43.935314,
-78.84691599999998,,Harmony Southbound @ Swiss,913,,1,,913,0,,2,43.933437,
-78.844845,,Northbound @ 753 Ritson,92003,,1,,92003,0,,2,43.88025819,
-79.056726,,Northbound @ 89 Church,92009,,1,,92009,0,,2,43.857407,
-79.0576403,,Church Northbound @ Meekings,92010,,1,,92010,0,,2,43.859534,
-79.0590204,,Northbound @ 399 Church,92011,,1,,92011,0,,2,43.8627026,
-79.05982,,Church Northbound @ Delaney,92012,,1,,92012,0,,2,43.8645756,
-79.061057,,Church Northbound @ Windle,92013,,1,,92013,0,,2,43.867394,
-79.061926,,Church Northbound @ Strickland,92014,,1,,92014,0,,2,43.86935305,
-79.05884,,Rossland Eastbound @ Harkins,92016,,1,,92016,0,,2,43.87189,
-79.05276,,Rossland Eastbound @ Ravenscroft,92017,,1,,92017,0,,2,43.87402,
-79.052967,,Ravenscroft Southbound @ Rossland,92018,,1,,92018,0,,2,43.87353682,
-79.052408,,Ravenscroft Southbound @ Hyde,92019,,1,,92019,0,,2,43.871963,
-79.0515815,,Ravenscroft Southbound @ Delaney,92020,,1,,92020,0,,2,43.8700233,
-79.050836,,Ravenscroft Southbound @ Pantoll,92036,,1,,92036,0,,2,43.8683026,
-79.0503198,,Ravenscroft Southbound @ Mossa,92037,,1,,92037,0,,2,43.86707220000001,
-79.048446,,Ravenscroft Southbound @ Daniels,92038,,1,,92038,0,,2,43.86361,
-79.03210199999998,,Rossland Westbound @ Woodcock,92041,,1,,92041,0,,2,43.878759,
-79.03495599999998,,Rossland Westbound @ 128 Rossland,92042,,1,,92042,0,,2,43.878137,
-79.046574,,Westney Northbound @ Williamson,92043,,1,,92043,0,,2,43.884761,
-79.027767,,Clements Westbound @ Finley,92047,,1,,92047,0,,2,43.833197,
-79.01441303999998,,Northbound @ 133 Salem,92054,,1,,92054,0,,2,43.86054494,
-79.0227251,,Williamson Eastbound @ Gillett,92059,,1,,92059,0,,2,43.89575475,
-79.016244,,Williamson Westbound @ Warner,92061,,1,,92061,0,,2,43.89760600000001,
-79.028741,,Salem Southbound @ Williamson,92064,,1,,92064,0,,2,43.892717,
-79.01519546999998,,Salem Southbound @ Twilley,92071,,1,,92071,0,,2,43.86138006,
-79.0131049,,Eastbound @ 257 Kingston Road East,92072,,1,,92072,0,,2,43.8639584,
-79.01450543,,Salem Southbound @ Mandrake,92075,,1,,92075,0,,2,43.85988205000001,
-78.827646,,Colonel Sam Eastbound @ Farewell,93000,,1,,93000,0,,2,43.879227,
-79.05344637834429,,Rossland Westbound @ Ravenscroft,93016,,1,,93016,0,,2,43.8740817866386,
-79.13067599999998,,Toronto Northbound @ Banff,93019,,1,,93019,0,,2,44.093966,
-79.130985,,Toronto Southbound @ Banff,93020,,1,,93020,0,,2,44.094054,
-78.892506,,Thornton Southbound @ Monaghan (Trent University Oshawa),93024,,1,,93024,0,,2,43.88908,
-78.90291,,Simcoe Southbound @ Windfields Farm,93026,,1,,93026,0,,1,43.96308,
-78.8461123,,Olive Eastbound @ Verdun,93027,,1,,93027,0,,2,43.8916763,
-78.834452,,Lakeview Westbound @ Birchcliffe,93028,,1,,93028,0,,2,43.861986,
-79.03862608999998,,Harwood Southbound @ Haskell,93031,,1,,93031,0,,2,43.89090112,
-78.85475,,Rossland Eastbound @ Brentwood,93035,,1,,93035,0,,2,43.91884000000001,
-78.85177539999998,,Harmony Northbound @ Coldstream,93036,,1,,93036,0,,2,43.94528721,
-78.962969,,Baldwin Southbound @ Canary,93040,,1,,93040,0,,2,43.92999275,
-78.96275199999998,,Baldwin Northbound @ Canary,93041,,1,,93041,0,,2,43.93034,
-79.06469787,,Kingston Eastbound @ Notion,93048,,1,,93048,0,,2,43.85221471,
-78.8793725,,Gibb Westbound @ Stevenson (East side stop),93054,,1,,93054,0,,2,43.8863306,
-79.05006016999998,,Westney Southbound @ Taunton,93055,,1,,93055,0,,2,43.89199751000001,
-79.05035663,,Westney Northbound @ Taunton,93056,,1,,93056,0,,2,43.89317982,
-79.04638522,,Rossland Westbound @ Carter-Bennett,93057,,1,,93057,0,,2,43.8755334,
-78.94358167,,Gordon Westbound @ James Govan,93058,,1,,93058,0,,2,43.8506919,
-78.94366388,,Gordon Eastbound @ James Govan,93059,,1,,93059,0,,2,43.85061079,
-79.131154,,Kingston Westbound @ Altona,93060,,1,,93060,0,,1,43.808712,
-79.132422,,Kingston Eastbound @ Altona,93061,,1,,93061,0,,1,43.807572,
-79.13244958999998,,Toronto Southbound @ Douglas,93063,,1,,93063,0,,2,44.09186165,
-78.8910235,,Conlin Westbound @ Bridle,93064,,1,,93064,0,,2,43.9491175,
