stop_id,stop_code,stop_name,stop_desc,stop_lat,stop_lon,zone_id,stop_url,location_type,parent_station,stop_timezone,wheelchair_boarding
20,1001,Kennedy Rd S n/of First Gulf Blvd,,43.673257,-79.718469,,,0,,,1
30,1002,Kennedy Rd s/of Steeles Ave,,43.675159,-79.72171,,,0,,,1
51100,1003,Kennedy - Zum Steeles Station Stop EB,,43.676199,-79.721745,,,0,,,1
60,1006,Rutherford Rd s/of Bramsteele Rd,,43.681968,-79.718981,,,0,,,1
15090804,1007,Williams - Zum Queen West Station Stop SB,,43.658335,-79.818246,,,0,,,1
70,1008,Rutherford Rd S n/of Bramsteele Rd,,43.683807,-79.721458,,,0,,,1
80,1009,Rutherford Rd S at Glidden Rd,,43.686334,-79.725066,,,0,,,1
90,1010,Rutherford Rd S at Selby Rd,,43.689013,-79.72896,,,0,,,1
100,1011,Rutherford Rd S opp Stafford Rd,,43.690237,-79.730618,,,0,,,1
110,1012,Rutherford Rd S at Clarence St,,43.691459,-79.731882,,,0,,,1
120,1013,Orenda Rd e/of Rutherford Rd S,,43.695114,-79.73276,,,0,,,1
130,1014,Orenda Rd btwn Rutherford Rd S & Heart Lake Rd,,43.695702,-79.729801,,,0,,,1
140,1015,Orenda Rd opp Heart Lake Rd,,43.696757,-79.727831,,,0,,,1
150,1016,Orenda Rd opp Tilbury Crt,,43.697323,-79.725029,,,0,,,1
160,1017,Orenda Rd at 237 Orenda Rd,,43.697068,-79.72267,,,0,,,1
170,1018,Orenda Rd at Titan Rd,,43.69808,-79.720259,,,0,,,1
180,1019,West Dr n/of Orenda Rd,,43.699876,-79.718366,,,0,,,1
190,1020,West Dr s/of Clark Blvd ( 55 West Dr ),,43.702724,-79.723127,,,0,,,1
200,1021,Clark Blvd e/of West Dr,,43.704702,-79.726936,,,0,,,1
210,1022,Clark Blvd at 185 Clark Blvd,,43.706436,-79.725026,,,0,,,1
220,1023,Clark Blvd at Terese Rd,,43.70923,-79.724078,,,0,,,1
222,1024,Queen St E btwn Torbram Rd & Gateway Blvd,,43.73617,-79.704012,,,0,,,1
230,1025,Clark Blvd at Braemar Dr,,43.711451,-79.721512,,,0,,,1
270,1028,Clark Blvd at Lisa St,,43.709748,-79.724024,,,0,,,1
280,1029,Clark Blvd opp 185 Clark Blvd,,43.705847,-79.726028,,,0,,,1
290,1030,Clark Blvd at West Dr,,43.704774,-79.727214,,,0,,,1
300,1031,West Dr s/of Clark Blvd,,43.703897,-79.726877,,,0,,,1
310,1032,West Dr at Norpak Whse,,43.701521,-79.721492,,,0,,,1
320,1033,West Dr s/of Orenda Rd,,43.699126,-79.717846,,,0,,,1
330,1034,Glidden Rd w/of West Dr,,43.69483,-79.713756,,,0,,,1
340,1035,Glidden Rd at Blair Dr,,43.693625,-79.715444,,,0,,,1
350,1036,Glidden Rd at Heart Lake Rd,,43.691648,-79.718268,,,0,,,1
360,1037,Glidden Rd w/of Heart Lake Rd,,43.689773,-79.720893,,,0,,,1
370,1038,Glidden Rd at Hale Rd,,43.688501,-79.722687,,,0,,,1
410,1043,Rutherford Rd S at Steeles Ave E,,43.680933,-79.717993,,,0,,,1
420,1044,First Gulf Blvd n/of Biscayne Cres (N),,43.679438,-79.715877,,,0,,,0
430,1045,First Gulf Blvd at Biscayne Cres S,,43.677124,-79.713402,,,0,,,0
440,1046,First Gulf Blvd btwn Biscayne Cres (S) and Kennedy,,43.674483,-79.715878,,,0,,,1
460,1047,N Hereford St s/of Steeles Ave,,43.622217,-79.780921,,,0,,,1
470,1048,Mississauga Road - Zum Steeles Station Stop EB,,43.62782,-79.775184,,,0,,,1
510,1052,Steeles Ave W at Churchville Rd,,43.639747,-79.762015,,,0,,,0
520,1053,Steeles Ave W at Clementine Dr,,43.643685,-79.757659,,,0,,,0
530,1054,Steeles Ave W btwn Mavis Rd & Windmill Blvd,,43.649578,-79.751152,,,0,,,1
540,1055,Mavis - Zum Steeles Station Stop EB,,43.647339,-79.753535,,,0,,,1
550,1056,Steeles Ave W at Windmill Blvd,,43.653268,-79.747021,,,0,,,1
560,1057,E Steeles Ave at McLaughlin Rd,,43.656006,-79.74387,,,0,,,1
610,1060,Steeles Ave E btwn Hurontario St & Hartford Tr,,43.670455,-79.728063,,,0,,,1
620,1061,Steeles Ave E at Hartford Trail,,43.673,-79.725318,,,0,,,1
670,1064,Steeles Ave E btwn Tomken Rd & Dixie Rd,,43.692357,-79.70409,,,0,,,1
680,1065,Steeles Ave w/of Dixie Rd,,43.694267,-79.701943,,,0,,,1
51106,1066,Dixie - Zum Steeles Station Stop EB,,43.695813,-79.700153,,,0,,,1
700,1067,Steeles Ave e/of Advance Blvd,,43.698744,-79.696521,,,0,,,1
730,1070,Steeles Ave E at Melanie Dr (W),,43.710072,-79.68431,,,0,,,1
740,1071,Steeles Ave E at Melanie Dr (E),,43.712018,-79.682116,,,0,,,1
760,1073,Steeles Ave opp Pearson Convention Centre,,43.721796,-79.671021,,,0,,,1
51112,1074,Airport Road - Zum Steeles Station Stop EB,,43.724305,-79.668113,,,0,,,1
780,1075,Steeles Ave E opp Parkhurst Sq,,43.726459,-79.665664,,,0,,,1
790,1076,Steeles Ave E at 3389 Steeles Ave E,,43.730908,-79.660502,,,0,,,1
800,1077,Steeles Ave E at Goreway Dr,,43.732727,-79.65842,,,0,,,1
810,1078,Goreway Dr s/of Steeles Ave E,,43.732258,-79.657241,,,0,,,0
51115,1080,Goreway - Zum Steeles Station Stop WB,,43.732831,-79.658904,,,0,,,1
820,1081,Goreway Dr at Kenview Blvd,,43.730598,-79.654914,,,0,,,1
830,1082,Kenview Blvd e/of Goreway Dr,,43.730828,-79.653569,,,0,,,0
840,1083,Kenview Blvd at 5 Kenview Blvd,,43.732225,-79.652079,,,0,,,0
850,1084,Kenview Blvd at 11 Kenview Blvd,,43.734576,-79.651319,,,0,,,0
900,1085,Kenview Blvd e/of Castleview Dr (19 Kenview Blvd),,43.7369,-79.6506,,,0,,,0
910,1086,Kenview Blvd at Parkshore Dr,,43.738431,-79.645311,,,0,,,1
920,1087,Finch Ave n/of Kenview Blvd,,43.740512,-79.644078,,,0,,,0
930,1088,Finch Ave s/of Steeles Ave,,43.74265,-79.646979,,,0,,,1
940,1090,E Albion Rd s/of Steeles Ave,,43.7493,-79.638861,,,0,,,1
15090805,1091,Mississauga Rd opp Credit Ridge Commons,,43.655933,-79.814968,,,0,,,0
15090806,1092,Mississauga Rd s/of Settlers Field Rd,,43.653649,-79.81179,,,0,,,1
15090807,1093,Mississauga Rd s/of Ostrander Blvd,,43.650391,-79.807309,,,0,,,1
15090808,1094,Mississauga Rd s/of Queen St,,43.64715,-79.802417,,,0,,,1
15090809,1095,Mississauga Rd n/of Embleton Rd,,43.644594,-79.799482,,,0,,,1
15090810,1096,Mississauga Rd n/of Lionhead Golf Club Rd,,43.637859,-79.790439,,,0,,,0
15090811,1097,Mississauga Rd s/of Olivia Marie Rd,,43.629107,-79.778451,,,0,,,1
1110,1099,Kenview Blvd w/of Finch Ave,,43.739552,-79.644298,,,0,,,1
1120,1100,Kenview Blvd at 26 Kenview Blvd,,43.738123,-79.648884,,,0,,,1
1130,1101,Kenview Blvd at 14 Kenview Blvd,,43.735587,-79.651223,,,0,,,1
1140,1102,Kenview Blvd at Paget Rd,,43.734285,-79.651626,,,0,,,1
1150,1103,Kenview Blvd at Goreway Dr,,43.730642,-79.654162,,,0,,,1
1170,1105,Goreway Dr at Steeles Ave E,,43.732859,-79.657418,,,0,,,1
1180,1106,Steeles Ave E at Parkhurst Sq,,43.727176,-79.665411,,,0,,,1
51113,1108,Airport Road - Zum Steeles Station Stop WB,,43.723292,-79.669948,,,0,,,1
51111,1110,Torbram - Zum Steeles Station Stop WB,,43.714029,-79.680455,,,0,,,1
1230,1111,Steeles Ave E w/of Melanie Dr (E),,43.71175,-79.682953,,,0,,,1
1235,1112,Steeles Ave E w/of Melanie Dr (W),,43.710007,-79.684932,,,0,,,1
1260,1115,Steeles Ave w/of Advance Blvd,,43.698202,-79.697824,,,0,,,1
51107,1116,Dixie - Zum Steeles Station Stop WB,,43.694648,-79.702146,,,0,,,1
1280,1117,Steeles Ave E btwn Dixie Rd & West Dr,,43.692759,-79.704133,,,0,,,1
51105,1118,West Drive - Zum Steeles Station Stop WB,,43.690065,-79.707133,,,0,,,1
51103,1120,Rutherford - Zum Steeles Station Stop WB,,43.680313,-79.717849,,,0,,,1
1315,1121,Steeles Ave E e/of Resolution Dr,,43.678405,-79.719987,,,0,,,1
1320,1122,Steeles Ave e/of Kennedy Rd,,43.676125,-79.722478,,,0,,,1
51101,1123,Kennedy - Zum Steeles Station Stop WB,,43.675124,-79.723551,,,0,,,1
1340,1124,Steeles Ave E at Orchard Dr,,43.673526,-79.725254,,,0,,,1
1345,1125,Fletchers Creek Blvd at Gold Hill Rd,,43.689387,-79.801253,,,0,,,1
1350,1126,Steeles Ave E at 152 Steeles Ave,,43.670919,-79.728094,,,0,,,1
1430,1130,Steeles Ave W at Tait Blvd,,43.653912,-79.746827,,,0,,,1
1440,1131,Steeles Ave W at Beaconsfield walkway,,43.649108,-79.752183,,,0,,,1
1450,1132,Steeles Ave W at Chinguacousy Rd,,43.647359,-79.75415,,,0,,,1
1460,1133,Steeles Ave W w/of James Potter Dr,,43.643963,-79.757787,,,0,,,1
1465,1134,Steeles Ave W at Polonia Ave,,43.642083,-79.759987,,,0,,,1
1470,1135,Steeles Ave at Churchville Rd,,43.640358,-79.761767,,,0,,,1
1490,1137,Steeles Ave W e/of Financial Dr,,43.633746,-79.769172,,,0,,,1
1500,1138,Financial - Zum Steeles Station Stop WB,,43.631767,-79.771344,,,0,,,1
1510,1139,Mississauga Rd s/of Steeles Ave,,43.626788,-79.775535,,,0,,,1
1520,1140,Mississauga Rd n/of Edgeware Rd,,43.623434,-79.771047,,,0,,,1
1530,1141,Hereford St w/of Mississauga Rd,,43.620547,-79.768579,,,0,,,1
1540,1142,Hereford St s/of Ironbridge Rd,,43.618516,-79.767462,,,0,,,1
1550,1143,Hereford St w/of President's Choice Cir (Loblaws),,43.617118,-79.768241,,,0,,,1
1560,1144,Hereford St btwn President's Choice Cir & Edgeware,,43.615558,-79.771769,,,0,,,1
1570,1145,Hereford St n/of Edgeware Rd,,43.619017,-79.776526,,,0,,,1
1640,1148,Kensington Rd e/of Central Park Dr,,43.720217,-79.719842,,,0,,,1
1650,1149,Kensington Rd at Kingscross Rd,,43.72116,-79.71879,,,0,,,1
1660,1150,Kensington Rd opp Bramalea Medical Centre,,43.722037,-79.717277,,,0,,,1
1670,1151,Kensington Rd at Bramalea Rd,,43.722824,-79.715934,,,0,,,1
1680,1152,Bramalea Rd at Knightsbridge Rd - Rte 12 ONLY,,43.721791,-79.71406,,,0,,,1
1720,1153,Finchgate Blvd at Feston Place,,43.726267,-79.709158,,,0,,,1
1730,1154,Finchgate Blvd at Queen St E,,43.727544,-79.712249,,,0,,,1
1740,1155,Glenvale Blvd s/of Gatwick Lane,,43.729168,-79.714538,,,0,,,1
1750,1156,Glenvale Blvd n/of Greenmount Rd,,43.730592,-79.715682,,,0,,,1
1760,1157,Glenvale Blvd at Geraldine Crt,,43.73295,-79.716623,,,0,,,1
1770,1158,Central Park Dr btwn Glenvale Blvd and Graham Crt,,43.733973,-79.7183,,,0,,,1
1780,1159,Grenoble Blvd at Central Park Dr,,43.733251,-79.720908,,,0,,,1
1790,1160,Grenoble Blvd at Glencastle Square,,43.734688,-79.721558,,,0,,,1
1800,1161,Grenoble Blvd at Gladstone Square,,43.736173,-79.721539,,,0,,,1
1810,1162,Grenoble Blvd at Greenbriar Rd,,43.737422,-79.722803,,,0,,,1
1815,1163,Grenoble Blvd at Williams Pky E,,43.738502,-79.724933,,,0,,,1
1840,1165,N Jordan Blvd at Joshua Crt,,43.742081,-79.728894,,,0,,,1
1850,1166,Jordan Blvd at Jameson Cres,,43.743762,-79.730125,,,0,,,1
1860,1167,Jordan Blvd s/of North Park Dr,,43.744451,-79.731592,,,0,,,1
1870,1168,North Park Dr at Jayfield Rd,,43.746387,-79.729903,,,0,,,1
1880,1169,North Park Dr opp Panda Lane,,43.748289,-79.727588,,,0,,,1
1890,1170,Torbram Rd at Blue Diamond Dr,,43.751976,-79.730465,,,0,,,1
1910,1172,Torbram Rd n/of Bovaird Dr E,,43.755108,-79.734617,,,0,,,1
1920,1173,Torbram Rd s/of Peter Robertson Blvd,,43.756344,-79.736365,,,0,,,1
1930,1174,Torbram Rd n/of Peter Robertson Blvd,,43.758859,-79.739807,,,0,,,1
1935,1175,Torbram Rd btwn Peter Robertson Blvd & Steeplebush,,43.760476,-79.741966,,,0,,,1
1940,1176,Torbram Rd at Eagleridge Rd,,43.76142,-79.743165,,,0,,,1
1945,1177,Torbram Rd btwn Eagleridge Dr & Sandalwood Pky E,,43.763159,-79.745545,,,0,,,1
2070,1188,S Mountainash Rd at Mountainberry Rd,,43.764283,-79.734604,,,0,,,1
2110,1192,Bovaird Dr E w/of Mountainash Rd,,43.757695,-79.730659,,,0,,,1
2120,1193,S Torbram Rd at Bovaird Dr,,43.75499,-79.734972,,,0,,,1
2125,1194,Torbram Rd s/of Bovaird Dr E,,43.753672,-79.733189,,,0,,,1
2130,1195,Torbram Rd at Prospect Gate,,43.752113,-79.73109,,,0,,,1
2140,1196,Torbram Rd at North Park Dr,,43.749453,-79.727497,,,0,,,1
2150,1197,North Park Dr at Panda Lane,,43.748349,-79.727831,,,0,,,1
2160,1198,North Park Dr at Provincial Place,,43.746818,-79.729722,,,0,,,1
2165,1199,North Park Dr btwn Provincial Pl & Jamieson Cres,,43.745504,-79.731306,,,0,,,1
2170,1200,Jordan Blvd at North Park Dr,,43.744323,-79.731737,,,0,,,1
2180,1201,Jordan Blvd at Joyce Gate,,43.74298,-79.72959,,,0,,,1
2190,1202,Jordan Blvd at Jefferson Rd,,43.740184,-79.727563,,,0,,,1
2210,1204,Grenoble Blvd at Glenforest Rd,,43.737453,-79.723225,,,0,,,1
2220,1205,Grenoble Blvd at Grasspoint Square,,43.735689,-79.72171,,,0,,,1
2230,1206,Grenoble Blvd n/of Central park Dr,,43.73364,-79.721452,,,0,,,1
2240,1207,Central Park Dr e/of Greenarrow Crt,,43.73356,-79.718835,,,0,,,1
2250,1208,Glenvale Blvd s/of Geraldine Crt,,43.732319,-79.716713,,,0,,,1
2260,1209,Glenvale Blvd at Goldcrest Rd,,43.730373,-79.715764,,,0,,,1
2270,1210,Glenvale Blvd at Gatwick Rd,,43.729264,-79.714876,,,0,,,0
2280,1211,Finchgate Blvd s/of Queen St E,,43.727643,-79.712759,,,0,,,1
2290,1212,Finchgate Blvd n/of Clark Blvd,,43.726047,-79.70894,,,0,,,1
2350,1214,Kensington Rd w/of Bramalea Rd,,43.722391,-79.71694,,,0,,,1
2360,1215,Kensington Rd at Kings Cross Rd,,43.721741,-79.718392,,,0,,,1
2370,1216,Kensington Rd at Central Park Dr,,43.72063,-79.719729,,,0,,,1
2390,1218,Central Park Dr at Knightsbridge Rd,,43.718001,-79.71791,,,0,,,1
2430,1220,Bramalea Rd n/of Steeles Ave E,,43.705553,-79.691834,,,0,,,1
2450,1222,Bramalea Rd at East Dr,,43.706748,-79.693537,,,0,,,1
2460,1223,Bramalea Rd n/of East Dr,,43.707983,-79.695182,,,0,,,1
2470,1224,Avondale Blvd at Autumn Blvd,,43.70857,-79.697173,,,0,,,1
2475,1225,W Avondale Blvd at Avondale Plaza,,43.707183,-79.698752,,,0,,,1
2490,1226,Avondale Blvd at Aloma Cres (E),,43.706378,-79.700401,,,0,,,0
2500,1227,Avondale Blvd w/of Aloma Cres (W),,43.704543,-79.7017,,,0,,,0
2510,1228,Avondale Blvd w/of Athlone Ave (S),,43.704276,-79.703224,,,0,,,0
2540,1230,Dixie Rd s/of Clark Blvd,,43.710095,-79.722081,,,0,,,1
2550,1231,Dixie Rd at Terese Rd,,43.708166,-79.71947,,,0,,,1
2560,1232,Balmoral Dr e/of Dixie Rd,,43.70657,-79.715128,,,0,,,1
2570,1233,Balmoral Dr at Braemar Dr,,43.707841,-79.714173,,,0,,,1
2580,1234,Balmoral Dr opp Brookland Dr,,43.709092,-79.712638,,,0,,,1
2590,1235,Avondale Blvd s/of Balmoral Dr,,43.709881,-79.710584,,,0,,,1
2600,1236,Avondale Blvd at Brentwood Dr,,43.707065,-79.709094,,,0,,,1
2610,1237,Avondale Blvd at Birchbank Rd,,43.704562,-79.706009,,,0,,,1
2620,1238,Avondale Blvd at 135 Avondale Blvd,,43.704011,-79.703916,,,0,,,0
2630,1239,Avondale Blvd opp Aloma Cres (W),,43.704967,-79.701073,,,0,,,0
2640,1240,Avondale Blvd at Victoria Park Arena,,43.706604,-79.69966,,,0,,,1
2650,1241,Avondale Blvd btwn Birchbank Rd & Athlone Ave,,43.704712,-79.705973,,,0,,,0
2660,1242,Avondale Blvd at Addington Cres,,43.70653,-79.708219,,,0,,,1
2670,1243,Avondale Blvd at Balmoral Dr,,43.710161,-79.710717,,,0,,,1
2680,1245,Balmoral Dr at Brookland Dr,,43.709477,-79.712381,,,0,,,1
2690,1246,Balmoral Dr e/of Braemar Dr,,43.708383,-79.713925,,,0,,,1
2700,1247,Balmoral Dr at Dixie Rd,,43.706145,-79.715847,,,0,,,1
2710,1248,Dixie Rd opp Terese Rd,,43.708141,-79.71887,,,0,,,1
2720,1249,Dixie Rd at Clark Blvd,,43.710581,-79.722202,,,0,,,1
2740,1251,Avondale Blvd at Bramalea Rd,,43.708691,-79.696745,,,0,,,0
2750,1252,Bramalea Rd s/of East Dr,,43.707138,-79.694391,,,0,,,1
2760,1253,Bramalea Rd at Orenda Rd,,43.706051,-79.692944,,,0,,,1
15090814,1257,Meadowvale Rd w/of Financial Dr,,43.614306,-79.751772,,,0,,,0
15090815,1258,Meadowvale Rd e/of Mississauga Rd,,43.612834,-79.75469,,,0,,,1
15090816,1259,Mississauga Rd s/of Hallstone Rd,,43.621064,-79.766966,,,0,,,1
15090817,1260,Mississauga Rd opp Edgeware Rd,,43.62316,-79.769992,,,0,,,1
15090818,1261,Mississauga Rd n/of Steeles,,43.627906,-79.776196,,,0,,,1
15090819,1262,Mississauga Rd n/of Olivia Marie Rd,,43.630119,-79.779163,,,0,,,1
15090820,1263,Mississauga Rd n/of Wardsville Dr,,43.633408,-79.783714,,,0,,,1
15090821,1264,Mississauga Rd n/of Financial Dr,,43.635809,-79.78703,,,0,,,1
15090822,1265,Mississauga Rd opp Lionhead Golf Club Rd,,43.63821,-79.790373,,,0,,,1
15090823,1266,Mississauga Rd opp Embleton Rd,,43.644186,-79.79855,,,0,,,1
15090824,1267,Mississauga Rd at Queen St,,43.647254,-79.801894,,,0,,,1
15090825,1268,Mississauga Rd n/of Adamsville Rd,,43.651233,-79.807886,,,0,,,1
15090826,1269,Williams - Zum Queen West Station Stop NB,,43.658624,-79.818007,,,0,,,1
2995,1277,Torbram Rd at 7795 Torbram (Peel Waste Facility),,43.709727,-79.673247,,,0,,,1
3000,1278,Torbram Rd s/of Steeles Ave,,43.713879,-79.678776,,,0,,,1
3010,1279,Torbram Rd n/of Steeles Ave E,,43.714993,-79.680245,,,0,,,1
3020,1280,Torbram Rd at Walker Dr,,43.71694,-79.683297,,,0,,,1
3030,1281,Torbram Rd n/of Bramhurst Ave,,43.720205,-79.6878,,,0,,,0
3040,1282,Torbram Rd opp 8458 Torbram Rd,,43.722591,-79.69103,,,0,,,1
3050,1283,Torbram Rd at 8555 Torbram Rd,,43.725125,-79.694382,,,0,,,1
3055,1284,Torbram Rd s/of Clark Blvd,,43.727244,-79.697243,,,0,,,1
3070,1285,Torbram Rd at 8705 Torbram Rd,,43.729824,-79.700778,,,0,,,0
3075,1286,Torbram Rd at 8875 Torbram Rd,,43.731071,-79.702472,,,0,,,0
3080,1288,N Torbram Rd at Queen St,,43.733682,-79.705922,,,0,,,1
3100,1290,Torbram Rd at Corporation Dr,,43.738309,-79.712208,,,0,,,1
3110,1291,Torbram Rd opp Gatewood Dr,,43.742195,-79.717404,,,0,,,1
3120,1292,Torbram Rd s/of Williams Pky,,43.743779,-79.719436,,,0,,,1
3130,1293,Torbram Rd opp Jardine St,,43.746993,-79.723785,,,0,,,0
3140,1294,Torbram Rd n/of North Park Dr,,43.749464,-79.727116,,,0,,,1
3355,1296,Torbram Rd btwn Sandalwood Pky E and Steeplebush,,43.763298,-79.746204,,,0,,,1
3360,1297,Torbram Rd at Steeplebush Ave,,43.761682,-79.744018,,,0,,,1
3370,1298,Torbram Rd btwn Steeplebush Ave & Peter Robertson,,43.758676,-79.739913,,,0,,,1
3380,1299,Torbram Rd at Peter Robertson Blvd,,43.757071,-79.737752,,,0,,,1
3430,1301,Torbram Rd at Jardine St,,43.746902,-79.72407,,,0,,,1
3440,1302,Torbram Rd at Williams Pky,,43.744332,-79.720627,,,0,,,1
3450,1303,Torbram Rd at Gatewood Dr,,43.742173,-79.717765,,,0,,,1
3460,1304,Torbram Rd at Central Park Dr,,43.738788,-79.713256,,,0,,,1
3470,1305,Torbram Rd n/of Grenadier Rd,,43.736407,-79.7101,,,0,,,1
3475,1306,Torbram Rd s/of Grenadier Rd,,43.736167,-79.709342,,,0,,,1
3480,1307,Torbram Rd s/of Queen St E,,43.733533,-79.706197,,,0,,,1
3500,1308,Torbram Rd opp 8875 Torbram Rd,,43.731353,-79.703207,,,0,,,0
3510,1309,Torbram Rd opp 8705 Torbram Rd,,43.729547,-79.700736,,,0,,,0
3520,1310,Torbram Rd n/of Clark Blvd,,43.727539,-79.698067,,,0,,,1
3530,1311,Torbram Rd at 8500 Torbram Rd,,43.724678,-79.694166,,,0,,,0
3540,1312,Torbram Rd at 8460 Torbram Rd,,43.722111,-79.690732,,,0,,,1
3550,1313,Torbram Rd s/of Balmoral Dr,,43.719366,-79.687039,,,0,,,1
3560,1314,Torbram Rd at East Dr,,43.717184,-79.684099,,,0,,,1
3570,1315,Torbram Rd n/of Steeles Ave,,43.714762,-79.680551,,,0,,,1
3580,1316,Torbram Rd s/of Steeles Ave E,,43.713558,-79.67884,,,0,,,1
3590,1317,7795 Torbram Rd at Waste Management,,43.710209,-79.674344,,,0,,,1
15090838,1322,Chinguacousy Rd n/of Drinkwater Rd,,43.656829,-79.767917,,,0,,,1
15090839,1323,Chinguacousy Rd btwn Queen St & Bonnie Braes Dr,,43.663192,-79.777202,,,0,,,1
15090840,1324,Chinguacousy Rd btwn Bonnie Braes Dr & Dusk Dr,,43.659006,-79.771503,,,0,,,1
15090843,1327,N Bloomsbury Ave n/of Latania Blvd,,43.782703,-79.727969,,,0,,,0
15090844,1328,N Bloomsbury Ave s/of Richgrove Dr,,43.784399,-79.731006,,,0,,,1
15090846,1330,Humberwest Pkwy at Airport Rd,,43.769265,-79.729366,,,0,,,1
15090847,1331,Humberwest Pkwy n/of Castlemore Rd,,43.767288,-79.718958,,,0,,,1
15090848,1332,Humberwest Pkwy n/of Crystal Hill Dr,,43.769308,-79.721813,,,0,,,1
15090849,1333,Humberwest Pkwy w/of Fairlawn Blvd,,43.770101,-79.727132,,,0,,,1
15090850,1334,Humberwest Pkwy e/of Airport Rd,,43.769483,-79.72962,,,0,,,1
3810,1336,Bramalea Rd n/of Dearbourne Blvd,,43.709281,-79.696904,,,0,,,1
3820,1337,Bramalea Rd opp Alexandria Gate,,43.711182,-79.69947,,,0,,,0
3830,1338,Bramalea Rd opp Algonquin Blvd,,43.713566,-79.70266,,,0,,,0
3840,1339,N Bramalea Rd at Blamoral Dr,,43.715354,-79.705022,,,0,,,1
3850,1340,Bramalea Rd at Clark Blvd,,43.719647,-79.71078,,,0,,,1
3864,1341,Knightsbridge Rd w/of Bramalea Rd,,43.7212,-79.714346,,,0,,,1
3865,1342,Knightsbridge Rd btwn Kings Cross & Central Pk Dr,,43.718865,-79.716507,,,0,,,1
3900,1344,Knightsbridge Rd btwn Central Park & Kings Cross,,43.719187,-79.715893,,,0,,,1
3910,1345,Knightsbridge Rd at Bramalea Rd,,43.721034,-79.714231,,,0,,,1
3930,1347,N Bramalea Rd at Queen St,,43.724066,-79.716638,,,0,,,1
3940,1348,Bramalea Rd n/of Queen St E,,43.725028,-79.717974,,,0,,,1
3950,1349,Bramalea Rd at Goodwood Rd,,43.727458,-79.721258,,,0,,,1
3960,1350,Bramalea Rd n/of Central Park Dr,,43.730205,-79.724881,,,0,,,1
3970,1351,Bramalea Rd s/of Williams Pky E (Salvation Army),,43.733048,-79.728745,,,0,,,1
3980,1352,N Bramalea Rd at Williams Pky,,43.733866,-79.729773,,,0,,,1
3990,1353,Bramalea Rd n/of Jackson Rd,,43.736151,-79.732827,,,0,,,1
4000,1354,Bramalea Rd at North Park Dr,,43.738865,-79.73651,,,0,,,1
4030,1357,Bramalea Rd s/of Bovaird Dr,,43.743578,-79.742885,,,0,,,1
4040,1358,Bramalea Rd n/of Bovaird Dr E,,43.745298,-79.745102,,,0,,,1
4050,1359,Bramalea Rd n/of Peter Robertson Blvd,,43.746837,-79.747268,,,0,,,1
4060,1360,Bramalea Rd btwn Peter Robertson Blvd & Larkspur R,,43.748102,-79.749014,,,0,,,1
4070,1361,Bramalea Rd at Larkspur Rd,,43.750281,-79.751939,,,0,,,1
4080,1362,Bramalea Rd n/of Larkspur Rd,,43.75213,-79.754465,,,0,,,1
4090,1363,Bramalea Rd s/of Sandalwood Pky,,43.753941,-79.756902,,,0,,,1
4140,1368,Fernforest Dr at Kalahari Rd,,43.751322,-79.76545,,,0,,,1
4180,1370,Bramalea Rd s/of Sandalwood Pky E,,43.7524,-79.755202,,,0,,,1
4190,1371,Bramalea Rd at Black Forest Dr,,43.750786,-79.753073,,,0,,,1
4200,1372,Bramalea Rd btwn Black Forest Dr & Peter Robertson,,43.748561,-79.750017,,,0,,,1
4220,1373,Bramalea Rd at Bovaird Dr,,43.744668,-79.744858,,,0,,,1
4225,1374,Bramalea Rd at Peter Robertson Blvd,,43.746661,-79.747507,,,0,,,1
4240,1375,Bramalea Rd at Marlbourough St,,43.741214,-79.740062,,,0,,,1
4250,1376,Bramalea Rd s/of North Park Dr,,43.738498,-79.73648,,,0,,,1
4260,1377,Bramalea Rd at Markham St,,43.735834,-79.732837,,,0,,,1
4270,1378,Bramalea Rd s/of Williams Pky E,,43.733607,-79.729878,,,0,,,1
4280,1379,Bramalea Rd at Central Park Dr,,43.729933,-79.724956,,,0,,,1
4290,1380,Bramalea Rd n/of Goodwood Rd ( Chinguacousy Park ),,43.727603,-79.721794,,,0,,,1
4400,1382,Bramalea Rd s/of Clark Blvd,,43.719374,-79.71081,,,0,,,1
4410,1383,S Bramalea Rd at Balmoral Dr,,43.71552,-79.705658,,,0,,,1
4420,1384,Bramalea Rd at Algonquin Blvd,,43.713437,-79.702829,,,0,,,1
4430,1385,Bramalea Rd at Alexandria Gate,,43.711196,-79.699823,,,0,,,1
4440,1386,Bramalea Rd at Avondale Blvd,,43.708981,-79.69688,,,0,,,1
4580,1399,Tomken Rd s/of Steeles Ave E,,43.689694,-79.705816,,,0,,,1
4630,1404,Westcreek Blvd e/of Hedgedale Rd,,43.685128,-79.701504,,,0,,,1
4720,1412,Bramalea Rd s/of Dewside Dr,,43.75715,-79.761122,,,0,,,1
4780,1413,Dearbourne Blvd opp Dorset Dr (e/of Bramalea Rd),,43.709906,-79.695064,,,0,,,1
4790,1414,Dearbourne Blvd opp Delmere Rd,,43.712703,-79.692052,,,0,,,1
4800,1415,Dearbourne Blvd at Deerfield Cres (S),,43.714044,-79.691547,,,0,,,1
4810,1416,Dearbourne Blvd opp Dorchester Dr,,43.715462,-79.691781,,,0,,,1
4820,1417,Dearbourne Blvd opp Devonshire Dr,,43.717327,-79.692194,,,0,,,1
4830,1418,Balmoral Dr w/of Dearbourne Blvd,,43.719367,-79.693169,,,0,,,1
4840,1419,Balmoral Dr at Drake Blvd,,43.720167,-79.694654,,,0,,,1
4850,1420,Eastbourne Dr n/of Balmoral Dr,,43.722029,-79.697316,,,0,,,1
4860,1421,Eastbourne Dr s/of Enderby Cres,,43.723358,-79.698198,,,0,,,1
4870,1422,Eastbourne Dr opp Evesham Cres (s/of Clark Blvd),,43.725197,-79.699549,,,0,,,1
5080,1424,Eastbourne Dr at Evesham Cres (E),,43.725129,-79.699753,,,0,,,1
5090,1425,Eastbourne Dr s/of Evesham Cres (Recreation Cen),,43.723312,-79.698407,,,0,,,1
5100,1426,Eastbourne Dr at Balmoral Dr,,43.722138,-79.697588,,,0,,,1
5110,1427,Balmoral Dr at Deloraine Dr,,43.720296,-79.695276,,,0,,,1
5120,1428,Balmoral Dr at Dearbourne Blvd,,43.71931,-79.693463,,,0,,,1
5130,1429,Dearbourne Blvd at Devonshire Dr,,43.717061,-79.692352,,,0,,,1
5140,1430,Dearbourne Blvd s/of Dorchester Dr,,43.715192,-79.691924,,,0,,,0
5160,1432,Dearbourne Blvd at Delmere Rd,,43.713055,-79.692084,,,0,,,1
5170,1433,Dearbourne Blvd at Dorset Dr (e/of Bramalea Rd),,43.710057,-79.69518,,,0,,,1
5260,1435,Hanover Rd w/of Hartnell Sq,,43.720785,-79.724984,,,0,,,1
5270,1436,Hanover Rd opp Helena Crt,,43.718012,-79.728077,,,0,,,0
5280,1437,Hanover Rd opp Hasting Square,,43.718797,-79.729596,,,0,,,1
5290,1438,Hanover Rd s/of Howden Blvd,,43.720169,-79.731421,,,0,,,1
5300,1439,Howden Blvd e/of Dixie Rd,,43.719017,-79.734576,,,0,,,0
5310,1440,Howden Blvd opp Heath Dr,,43.718355,-79.737691,,,0,,,1
5320,1441,Howden Blvd at Vodden Rd E,,43.717123,-79.741461,,,0,,,1
5330,1442,Howden Blvd at Ladin Dr,,43.718192,-79.744029,,,0,,,1
5340,1443,Howden Blvd at Leander St,,43.719364,-79.745495,,,0,,,1
5350,1444,North Park Dr n/of Williams Pwky E,,43.720926,-79.747431,,,0,,,0
5360,1445,North Park Dr s/of Northampton St,,43.722381,-79.749987,,,0,,,1
5370,1446,North Park Dr at Neptune Crt,,43.723854,-79.753438,,,0,,,1
5380,1447,Nasmith St n/of North Park Dr,,43.727035,-79.754445,,,0,,,0
5390,1448,Nasmith St at Nevada Crt,,43.728267,-79.75701,,,0,,,1
5400,1449,Nasmith St at Newport St,,43.729026,-79.758026,,,0,,,1
5450,1452,Great Lakes Dr n/of Bovaird Dr,,43.730522,-79.76047,,,0,,,0
5460,1453,Nasmith St n/of Niagara Pl,,43.728189,-79.757155,,,0,,,0
5470,1454,North Park Dr w/of Nasmith St,,43.726531,-79.754199,,,0,,,1
5480,1455,North Park Dr at Nuffield St,,43.724049,-79.753899,,,0,,,1
5490,1456,North Park Dr opp Northampton St,,43.72244,-79.750671,,,0,,,1
5500,1457,North Park Dr n/of Williams Pky E,,43.720961,-79.747932,,,0,,,1
5510,1458,Howden Blvd s/of Williams Pky E,,43.719672,-79.746222,,,0,,,1
5520,1459,Howden Blvd at La France Rd,,43.718331,-79.744514,,,0,,,1
5530,1460,Howden Blvd at Vodden St,,43.716918,-79.741928,,,0,,,1
5540,1461,Howden Blvd at Heath Dr,,43.718132,-79.738324,,,0,,,1
5550,1462,Howden Blvd at Dixie Rd,,43.718931,-79.734266,,,0,,,1
5560,1463,Howden Blvd at Hanover Rd,,43.720196,-79.732468,,,0,,,1
5570,1464,Hanover Rd at Homeland Crt,,43.719229,-79.730474,,,0,,,1
5580,1465,Hanover Rd at Helena Crt,,43.717884,-79.728367,,,0,,,1
5590,1466,Hanover Rd opp Huntingwood Cres,,43.720251,-79.725191,,,0,,,1
15090860,1475,S Chinguacousy Rd n/of Steeles Ave,,43.647154,-79.755477,,,0,,,1
15090744,1476,Derry Rd e/of Derrycrest Dr,,43.644087,-79.708739,,,0,,,0
15090862,1477,Charolais Blvd e/of James Potter Rd,,43.649152,-79.761698,,,0,,,1
15090863,1478,Dusk Dr w/of Chinguacousy Rd,,43.655684,-79.768317,,,0,,,1
15090864,1479,Drinkwater Rd n/of Vivians Cres (N),,43.661471,-79.764787,,,0,,,1
15090865,1480,Drinkwater Rd s/of Ripley Cres (S),,43.662682,-79.766321,,,0,,,1
15090866,1481,Drinkwater Rd n/of White Tail Cres (S),,43.663807,-79.768714,,,0,,,1
15090867,1482,Drinkwater Rd s/of Sunley Cres (N),,43.665827,-79.771153,,,0,,,1
15090868,1483,Drinkwater Rd opp Herkes Dr,,43.66715,-79.772239,,,0,,,1
15090869,1484,Drinkwater Rd s/of McCleave Cres (N),,43.668469,-79.773627,,,0,,,1
15090870,1485,Drinkwater Rd s/of Colonel Frank Ching Cres,,43.669444,-79.775505,,,0,,,0
15090871,1486,Drinkwater Rd at 709 Queen St,,43.670189,-79.776683,,,0,,,1
15090872,1487,Academic Dr s/of Queen St,,43.672257,-79.773571,,,0,,,0
15090873,1488,Drinkwater Rd s/of Queen St,,43.66976,-79.776244,,,0,,,0
15090874,1489,Drinkwater Rd n/of Ventura Ave,,43.668697,-79.774253,,,0,,,1
15090875,1490,Drinkwater Rd s/of Herkes Dr,,43.667047,-79.772341,,,0,,,1
15090876,1491,Drinkwater Rd n/of Sterritt Dr,,43.665155,-79.770757,,,0,,,1
15090877,1492,Drinkwater Rd opp White Tail Cres (S),,43.663504,-79.768393,,,0,,,0
15090878,1493,Drinkwater Rd s/of Spalding Gate,,43.662514,-79.766357,,,0,,,1
15090879,1494,Drinkwater Rd opp Vivians Cres (N),,43.661398,-79.764923,,,0,,,1
15090880,1495,Drinkwater Rd at Lockwood Rd,,43.659524,-79.765503,,,0,,,1
5960,1498,Dixie Rd s/of Advance Blvd,,43.69062,-79.694769,,,0,,,1
5970,1499,Dixie Rd at Steeles Ave E,,43.694897,-79.700538,,,0,,,1
5980,1500,Dixie Rd n/of Steeles Ave,,43.695848,-79.701941,,,0,,,1
5990,1501,Dixie Rd btwn Steeles Ave E and Orenda Rd,,43.697537,-79.704688,,,0,,,1
6000,1502,Dixie Rd n/of Orenda Rd,,43.700219,-79.708195,,,0,,,1
6010,1503,Dixie Rd at Birchbank Rd,,43.701597,-79.710161,,,0,,,1
6020,1505,Dixie Rd s/of Balmoral Dr,,43.705785,-79.715749,,,0,,,1
6080,1506,Dixie Rd at Lisa St (BCC Mall Entrance),,43.713086,-79.725493,,,0,,,1
6090,1507,Dixie Rd n/of Queen St E,,43.715878,-79.729175,,,0,,,1
6100,1508,Dixie Rd opp Hazelwood Dr,,43.718152,-79.732273,,,0,,,1
6110,1509,Dixie Rd n/of Howden Blvd,,43.719699,-79.734292,,,0,,,1
6120,1510,Dixie Rd at Crescent Hill Dr,,43.721092,-79.736149,,,0,,,1
6130,1511,Dixie Rd opp Lascelles Blvd,,43.723715,-79.739694,,,0,,,1
6140,1512,Dixie Rd n/of Williams Pky E,,43.725714,-79.742366,,,0,,,1
6150,1513,Dixie Rd at Mansion St,,43.727037,-79.744147,,,0,,,1
6160,1514,Dixie Rd at North Park Dr,,43.729792,-79.747799,,,0,,,0
6170,1515,Dixie Rd n/of Moregate Cres,,43.732734,-79.75185,,,0,,,1
6175,1516,Dixie Rd btwn North Park and Moregate Cres,,43.731405,-79.750022,,,0,,,0
6180,1517,Dixie Rd n/of Bovaird Dr E,,43.735395,-79.755274,,,0,,,1
6185,1518,Dixe Rd btwn Bovaird Dr and Peter Robertson Blvd,,43.736946,-79.757526,,,0,,,1
6190,1519,Dixie Rd at Peter Robertson Blvd,,43.738669,-79.759817,,,0,,,1
6200,1520,Dixie Rd n/of Peter Robertson Blvd,,43.73988,-79.76148,,,0,,,1
6210,1521,Dixie Rd btwn Peter Robertson Blvd and Springtown,,43.741206,-79.763258,,,0,,,1
6220,1522,Dixie Rd at Springtown Trail,,43.7428,-79.765389,,,0,,,1
6230,1523,Dixie Rd at Sandalwood Pky E,,43.745045,-79.768412,,,0,,,1
6235,1524,Dixie Rd n/of Sandalwood Pky,,43.745851,-79.769571,,,0,,,1
6240,1525,Dixie Rd btwn Sandalwood Pky E & Octillo Blvd,,43.747085,-79.771215,,,0,,,1
6250,1526,Dixie Rd at Octillo Blvd,,43.748079,-79.772566,,,0,,,1
6255,1527,Dixie Rd n/of Octillo Blvd,,43.749399,-79.774422,,,0,,,1
6310,1531,Fernforest Dr at Sandalwood Pky,,43.750121,-79.764102,,,0,,,1
6330,1532,Dixie Rd s/of Sandalwood Pky E,,43.744611,-79.768408,,,0,,,1
6340,1533,Dixie Rd opp Springtown Trail,,43.743211,-79.766498,,,0,,,1
6350,1534,Dixie Rd btwn Springtown Trail and Peter Robertson,,43.74097,-79.763448,,,0,,,1
6360,1535,Dixie Rd n/of Guru Nanak St,,43.738753,-79.760511,,,0,,,1
6370,1536,Dixie Rd at 10078 Dixie Rd,,43.736247,-79.757035,,,0,,,0
6380,1537,Dixie Rd s/of Bovaird Dr E,,43.734161,-79.754342,,,0,,,1
6390,1538,Dixie Rd at Northcliffe St,,43.732348,-79.751806,,,0,,,0
6400,1539,Dixie Rd btwn Northcliffe St and North Park Dr,,43.731203,-79.750196,,,0,,,0
6410,1540,Dixie Rd s/of North Park Dr,,43.729448,-79.747821,,,0,,,1
6420,1541,Dixie Rd at Northampton St,,43.727168,-79.744829,,,0,,,1
6550,1543,Dixie Rd at Balmoral Dr (Rogers),,43.705935,-79.716447,,,0,,,1
6560,1544,Dixie Rd at 8200 Dixie Rd,,43.703248,-79.71293,,,0,,,1
6570,1545,Dixie Rd s/of Orenda Rd (N),,43.701071,-79.710125,,,0,,,1
6575,1546,Dixie Rd at Orenda Rd (S),,43.699928,-79.70831,,,0,,,1
6576,1547,Dixie Rd btwn Orenda Rd & Steeles Ave E,,43.697792,-79.705713,,,0,,,1
6580,1548,Dixie Rd at 8000 Dixie Rd,,43.695563,-79.702256,,,0,,,1
6590,1549,Dixie Rd s/of Steeles Ave E,,43.69409,-79.700109,,,0,,,1
6600,1550,Dixie Rd n/of Advance Blvd,,43.691356,-79.696483,,,0,,,1
6740,1560,Hilldale Cres at Hayden Crt,,43.725701,-79.729435,,,0,,,1
6750,1561,Hilldale Cres opp Holley Hedge Crt,,43.725517,-79.731386,,,0,,,1
6770,1563,Hilldale Cres at Hyde Park Crt,,43.727507,-79.731108,,,0,,,1
6780,1564,Hilldale Cres opp Hallcrown Crt,,43.729131,-79.729375,,,0,,,1
6790,1565,Hilldale Cres opp Hedley Crt,,43.729352,-79.727173,,,0,,,0
6820,1566,Williams Pky E at Mackay St S,,43.731222,-79.733608,,,0,,,1
6830,1567,Mackay St S n/of Williams Pky E,,43.73161,-79.734424,,,0,,,1
6840,1568,Mackay St S n/of Manorcrest St,,43.733484,-79.737458,,,0,,,1
6850,1569,Mackay St S at Guildford Cres (S),,43.734107,-79.739695,,,0,,,1
6860,1570,Mackay St N at Morley Cres (S),,43.735333,-79.743448,,,0,,,1
6870,1571,Mackay St N at McMullen Cres,,43.73581,-79.746984,,,0,,,1
6880,1572,Mackay St N n/of Massey St,,43.737016,-79.749089,,,0,,,1
6890,1573,Mackay St N at Bovaird Dr E,,43.737976,-79.750709,,,0,,,1
6900,1574,Fernforest Dr n/of Homewood St,,43.739487,-79.753046,,,0,,,1
6930,1575,Fernforest Dr n/of Blackforest Dr,,43.74562,-79.757751,,,0,,,1
6940,1576,Fernforest Dr n/of Deerglen Dr,,43.747419,-79.760199,,,0,,,1
6950,1577,Fernforest Dr s/of Sandalwood Pky,,43.749542,-79.762944,,,0,,,1
6990,1578,Great Lakes Dr at Harold M. Braithwaite S.S,,43.737711,-79.77062,,,0,,,1
7110,1580,Sandalwood Pky w/of Fernforest Dr,,43.749717,-79.763846,,,0,,,1
7120,1581,Fernforest Dr at Hollybush St,,43.749125,-79.762726,,,0,,,1
7130,1582,Fernforest Dr s/of Rainforest Dr,,43.747462,-79.760469,,,0,,,1
7140,1583,Fernforest Dr at Black Oak Dr,,43.74528,-79.757508,,,0,,,1
7240,1584,Mackay St S s/of Malabar Cres,,43.733932,-79.739649,,,0,,,1
7270,1585,Williams Pky E e/of Mackay St S,,43.731595,-79.732775,,,0,,,1
7280,1586,Williams Pky E at Bramalea Rd  (North Peel S.S.),,43.733091,-79.731047,,,0,,,1
7320,1587,Hilldale Cres at Hedley Crt,,43.729482,-79.727051,,,0,,,1
7330,1588,Hilldale Cres at Hallcrown Crt,,43.729252,-79.729519,,,0,,,1
7340,1589,Hilldale Cres btwn Homer Sq and Horatio Crt,,43.727478,-79.73142,,,0,,,1
7360,1591,Hilldale Cres at Hollyhedge Crt,,43.725364,-79.731438,,,0,,,1
7370,1592,Hilldale Cres s/of Hector Crt,,43.725605,-79.728864,,,0,,,1
7455,1593,Major William Sharpe Dr e/of Chinguacousy Rd,,43.676794,-79.794583,,,0,,,1
7460,1594,Major William Sharpe Dr w/of Alloway Gate,,43.677795,-79.792859,,,0,,,1
7470,1595,Major William Sharpe Dr s/of Castlehill Rd,,43.677935,-79.79084,,,0,,,1
7480,1596,Major William Sharpe Dr n/of Murdoch Dr,,43.677063,-79.789239,,,0,,,1
7490,1597,Major William Sharpe Dr at Flowertown Ave,,43.675797,-79.787987,,,0,,,0
7500,1598,Flowertown Ave w/of Phelps Dr,,43.676529,-79.785889,,,0,,,1
7510,1599,Flowertown Ave w/of Grange St,,43.677739,-79.784313,,,0,,,1
7520,1600,Flowertown Ave w/of Cumbrian Crt,,43.679251,-79.782545,,,0,,,0
7530,1601,Flowertown Ave e/of Fairfield Ave,,43.680864,-79.78073,,,0,,,0
7535,1602,Flowertown Ave w/of McLaughlin Rd N,,43.682142,-79.779261,,,0,,,1
7600,1604,Queen St W opp Mercer Dr,,43.677832,-79.76863,,,0,,,1
7610,1605,Queen St W e/of Haggart Ave S,,43.679234,-79.767084,,,0,,,1
7620,1606,McMurchy - Zum Queen West Station Stop EB,,43.680653,-79.765508,,,0,,,0
7630,1607,Queen St W at Mill St S,,43.682887,-79.763066,,,0,,,1
7640,1608,Queen St W at Elizabeth St S,,43.683869,-79.762014,,,0,,,1
7650,1609,George St n/of Diplock Lane,,43.685779,-79.76175,,,0,,,0
7675,1612,Queen St E e/of Chapel St,,43.687404,-79.758142,,,0,,,1
7680,1613,Queen St E w/of James St,,43.689123,-79.756213,,,0,,,1
7700,1615,Queen St E at Trueman St,,43.692694,-79.752537,,,0,,,1
7710,1616,Queen St E opp Beech St,,43.693454,-79.751687,,,0,,,1
7730,1618,Queen St E btwn Kennedy Rd N & Hansen Rd,,43.697293,-79.74737,,,0,,,1
7740,1619,Queen St E e/of Hansen Rd,,43.699022,-79.745395,,,0,,,1
7750,1620,Queen St btwn Hansen Rd & Rutherford Rd,,43.699881,-79.744432,,,0,,,1
7790,1622,West Drive s/of Queen St E,,43.70808,-79.733301,,,0,,,1
7800,1624,West Dr n/of Clark Blvd (100 West Dr),,43.705632,-79.729635,,,0,,,1
7980,1629,Delta Park Blvd at 170 Delta Park Blvd - 1A,,43.743691,-79.690618,,,0,,,1
7990,1630,Delta Park Blvd at Nevets Rd - 1A,,43.742562,-79.689937,,,0,,,0
7995,1631,Nevets Rd at Airport - 1A,,43.74125,-79.692045,,,0,,,1
8000,1632,Coventry Rd w/of Airport Rd - 1A,,43.740613,-79.692993,,,0,,,1
8020,1634,Conventry Rd at Walker Dr,,43.738869,-79.69536,,,0,,,1
8030,1635,Walker Dr at 299 Walker Dr ( Bell Building ) - 1A,,43.739239,-79.697384,,,0,,,1
8040,1636,Walker Rd at Gateway Blvd - 1A,,43.737914,-79.698902,,,0,,,0
8050,1637,Gateway Blvd at Queen St E - 1A,,43.738254,-79.700337,,,0,,,1
8070,1638,Queen St E w/of Tim Hortons (2433 Queen St E),,43.736677,-79.704038,,,0,,,0
8200,1641,West Dr at 83 West Dr,,43.705708,-79.729296,,,0,,,1
8210,1642,West Dr at 115 West Dr,,43.707824,-79.732443,,,0,,,1
8245,1643,Queen St E at 300 Queen St E,,43.700155,-79.744648,,,0,,,1
8250,1644,Queen St E w/of Hansen Rd,,43.69852,-79.746508,,,0,,,1
8260,1645,Queen St E btwn Hansen Rd & Kennedy Rd N,,43.697342,-79.747843,,,0,,,1
8280,1647,Queen St E at Beech St,,43.693939,-79.751551,,,0,,,1
8290,1648,Queen St E at 164 Queen St,,43.692585,-79.753035,,,0,,,1
8310,1651,Queen St E w/of Scott St,,43.689419,-79.756277,,,0,,,1
8320,1652,Queen St E e/of Theatre Lane,,43.687299,-79.758516,,,0,,,1
8340,1654,George St opp Diplock Lane,,43.685426,-79.761521,,,0,,,1
8350,1655,Queen St W at Mill St N,,43.683694,-79.762473,,,0,,,1
8360,1656,Queen St W at Park St,,43.68272,-79.763555,,,0,,,1
8370,1657,McMurchy - Zum Queen West Station Stop WB,,43.680472,-79.76604,,,0,,,1
8380,1658,Queen St W at Haggert Ave N,,43.679199,-79.767412,,,0,,,1
8390,1659,Queen St W at Mercer Dr,,43.677935,-79.768806,,,0,,,1
8400,1660,McLaughlin - Zum Queen West Station Stop WB,,43.675742,-79.771301,,,0,,,1
8410,1661,Queen St W e/of Kimbark Dr,,43.672954,-79.774387,,,0,,,1
8430,1663,Major William Sharpe Dr n/of Burgby Ave,,43.671533,-79.782989,,,0,,,1
8440,1664,Major William Sharpe Dr opp Candy Cres (S),,43.672868,-79.785205,,,0,,,1
8450,1665,Flowertown Ave w/of Major William Sharpe Dr,,43.675613,-79.788279,,,0,,,0
8460,1666,Flowertown Ave at Chinguacousy Rd,,43.673927,-79.791041,,,0,,,1
8500,1667,McLaughlin Rd s/of Steeles Ave W,,43.656288,-79.743238,,,0,,,1
8510,1668,Steeles Ave W e/of McLaughlin Rd S (Sheridan Ent),,43.657777,-79.74194,,,0,place_SHER,,1
8550,1671,McMurchy - Zum Steeles Station Stop WB,,43.661472,-79.738423,,,0,,,1
8590,1674,Mill St S at Campkin St,,43.669094,-79.743101,,,0,,,1
8600,1675,Mill St S at Elgin Dr,,43.67157,-79.745003,,,0,,,1
8610,1676,Elgin St opp Armbro Dr,,43.670665,-79.747228,,,0,,,1
8620,1677,Elgin St at McMurchy Ave,,43.669022,-79.748879,,,0,,,1
8630,1678,McMurchy Ave at Ambleside Dr,,43.669974,-79.750352,,,0,,,1
8640,1679,McMurchy Ave S opp Kingsview Blvd,,43.672618,-79.753954,,,0,,,1
8650,1680,McMurchy Ave S n/of Harold St,,43.674916,-79.757078,,,0,,,0
8660,1681,McMurchy Ave S n/of Frederick St,,43.676558,-79.759277,,,0,,,0
8670,1682,McMurchy Ave S opp McHardy Place,,43.678107,-79.7614,,,0,,,1
8680,1683,McMurchy Ave s/of Jessie St,,43.680135,-79.764153,,,0,,,1
8690,1684,McMurchy Ave S at Queen St W,,43.680805,-79.765038,,,0,,,0
8700,1685,McMurchy Ave N at Nelson St,,43.682191,-79.766783,,,0,,,1
8710,1686,McMurchy Ave N at Denison Ave,,43.683467,-79.768527,,,0,,,0
8720,1687,Railroad St e/of McMurchy Ave N,,43.684891,-79.770096,,,0,,,1
8730,1688,Railroad St at West St,,43.685533,-79.769738,,,0,,,0
8740,1689,Railroad St w/of Mill St,,43.686163,-79.766686,,,0,,,1
8770,1691,Railroad St e/of Mill St,,43.686335,-79.766352,,,0,,,1
8780,1692,Railroad St opp West St,,43.685718,-79.769325,,,0,,,0
8790,1693,McMurchy Ave N s/of Railroad St,,43.684091,-79.769619,,,0,,,1
8800,1694,McMurchy Ave N s/of Denison Ave,,43.683207,-79.768396,,,0,,,1
8805,1695,McMurchy Ave N at Nelson St W,,43.682435,-79.76736,,,0,,,1
8810,1696,McMurchy Ave N at Queen St W,,43.681241,-79.765826,,,0,,,1
8820,1697,McMurchy Ave S at Royce Ave,,43.679488,-79.763465,,,0,,,1
8830,1698,McMurchy Ave S at McHardy Place,,43.678023,-79.761625,,,0,,,1
8840,1699,McMurchy Ave S at Corby Cres,,43.676639,-79.759706,,,0,,,0
8850,1700,McMurchy Ave S s/of Harold St,,43.674398,-79.75668,,,0,,,1
8860,1701,McMurchy Ave S s/of Kingsview Blvd,,43.67246,-79.754107,,,0,,,1
8870,1702,McMurchy Ave n/of Ambleside Dr,,43.670339,-79.751215,,,0,,,1
8880,1703,Elgin St opp Trotters Ln,,43.669034,-79.74859,,,0,,,1
8890,1704,Elgin St at Armbro Ave,,43.670449,-79.747164,,,0,,,0
8900,1705,Elgin St at Mill St S,,43.671663,-79.745707,,,0,,,1
8910,1706,Mill St S at Grand Circuit Crt,,43.671316,-79.744922,,,0,,,1
8920,1707,Mill St S at Howell St,,43.669384,-79.74335,,,0,,,1
8930,1708,Charolais Blvd e/of Mill Street,,43.667706,-79.74123,,,0,,,1
8940,1709,McMurchy Ave S s/of Charolais Blvd,,43.664737,-79.743509,,,0,,,1
8950,1710,McMurchy Ave S at Keystone Dr,,43.663261,-79.741551,,,0,,,1
8960,1711,McMurchy Ave S s/of Peelton Heights Rd,,43.661828,-79.739638,,,0,,,1
9000,1714,Steeles Ave W opp Bernard Ave,,43.659929,-79.740175,,,0,,,0
9020,1716,McLaughlin Rd S at Holland Christian Homes,,43.65507,-79.741941,,,0,,,1
9060,1721,Main St S at Bartley Bull Pky,,43.667932,-79.735507,,,0,,,1
9065,1722,Main St opp Charolais Blvd,,43.66959,-79.737813,,,0,,,1
9070,1723,Main St S n/of Peel Village Pky,,43.671736,-79.740763,,,0,,,1
9080,1724,Main St opp Elgin Dr,,43.673499,-79.743151,,,0,,,1
9090,1725,Nanwood - Zum Main Station Stop NB,,43.677265,-79.748065,,,0,,,1
9100,1726,Main St S btwn Nanwood Dr & Harold St,,43.678629,-79.750005,,,0,,,1
9110,1727,Main St at Clarence St,,43.680161,-79.752081,,,0,,,1
9120,1728,Main St S n/of Guest St,,43.681341,-79.753663,,,0,,,1
9130,1729,Main St S n/of Woodbrook Dr (St. Mary Church),,43.683254,-79.756208,,,0,,,1
9140,1730,Wellington - Zum Main Station Stop NB,,43.684397,-79.75775,,,0,,,1
9150,1732,Main St N n/of Queen St E,,43.686112,-79.760113,,,0,,,1
9160,1733,Theatre Lane - Zum Main Station Stop NB,,43.687392,-79.761815,,,0,,,1
9170,1734,Main St s/of Church St,,43.688043,-79.76272,,,0,,,1
9180,1735,Main St N at Alexander St,,43.68908,-79.764089,,,0,,,1
9190,1736,Main St at Sproule Dr,,43.691066,-79.766767,,,0,,,1
9195,1737,Vodden - Zum Main Station Stop NB,,43.692804,-79.76904,,,0,,,1
9210,1739,Main St s/of English St,,43.694537,-79.771366,,,0,,,1
9220,1740,Main St N at Layham Gate,,43.696209,-79.773606,,,0,,,1
9230,1741,Williams - Zum Main Station Stop NB,,43.698568,-79.776718,,,0,,,1
9235,1742,Main St N btwn Layham Gate & Williams Pky E,,43.69765,-79.775592,,,0,,,1
9250,1744,Main St N at Brickyard Way,,43.70078,-79.779768,,,0,,,1
9265,1746,Main St N btwn Brickyard Way & Quarry Edge Dr,,43.702148,-79.781735,,,0,,,1
9270,1747,Main St N at Quarry Edge Dr,,43.703363,-79.783347,,,0,,,1
9280,1748,Bovaird - Zum Main Station Stop NB,,43.706584,-79.787571,,,0,,,1
9300,1750,Hurontario St at Wexford Rd,,43.709736,-79.791893,,,0,,,1
9310,1751,Hurontario St at Tremblay St,,43.712453,-79.795573,,,0,,,1
9320,1752,Hurontario St opp Fisherman Dr,,43.715026,-79.798973,,,0,,,1
9330,1753,Sandalwood Pkwy e/of Main St,,43.71832,-79.802312,,,0,,,1
9350,1755,Sandalwood Pky E at Sunforest Dr,,43.720585,-79.799867,,,0,,,1
9360,1756,Sandalwood Pky E at 95 Sandalwood (Firestation),,43.722585,-79.797758,,,0,,,1
9380,1758,Conestoga Dr opp Loafers Lake Lane,,43.726117,-79.79796,,,0,,,1
9390,1759,Heart Lake Terminal Route 2 Stop,,43.727918,-79.798011,,,0,place_HTLK,,1
9415,1760,Conestoga Dr opp Mondragon Circle,,43.729642,-79.796869,,,0,,,1
9420,1761,Sandalwood Pky E w/of Kennedy Rd N,,43.727636,-79.794317,,,0,,,1
9430,1762,Sandalwood Pky E w/of Conestoga Dr,,43.725202,-79.796654,,,0,,,1
9440,1763,Sandalwood Pky E opp 95 Sandalwood Pky E (Firestat,,43.72297,-79.797784,,,0,,,1
9450,1764,Sandalwood Pky E at Braidwood Lake Rd,,43.721023,-79.799768,,,0,,,1
9460,1765,Sandalwood Pky E w/of Braidwood Lake Rd,,43.719975,-79.800905,,,0,,,1
9470,1766,Sandalwood Pky E at Hurontario St,,43.718165,-79.802881,,,0,,,1
9475,1767,Sandalwood - Zum Main Station Stop SB,,43.717308,-79.80268,,,0,,,1
9480,1768,Hurontario St at Fisherman Dr,,43.715114,-79.799702,,,0,,,1
9490,1769,Hurontario St n/of Tremblay St,,43.712565,-79.796225,,,0,,,1
9500,1770,Hurontario St s/of Wexford Rd,,43.70907,-79.791483,,,0,,,1
9510,1771,Hurontario St at 10086 Hurontario St (Stitches Out,,43.707435,-79.789331,,,0,,,0
9520,1772,Hurontario St at Bovaird Dr W,,43.706286,-79.787816,,,0,,,1
9530,1773,Bovaird - Zum Main Station Stop SB,,43.70496,-79.785993,,,0,,,1
9540,1774,Main St N at Gillingham Dr,,43.703529,-79.784019,,,0,,,1
9550,1775,Main St N btwn Gillingham Dr & Brickyard Way,,43.701473,-79.781164,,,0,,,1
9560,1776,Main St s/of Brickyard Way,,43.69995,-79.779077,,,0,,,1
9580,1778,Williams - Zum Main Station Stop SB,,43.698287,-79.776905,,,0,,,1
9590,1779,Main St N at Archibald St,,43.696388,-79.774211,,,0,,,1
9600,1780,Main St at English St,,43.694723,-79.771964,,,0,,,1
9610,1781,Vodden - Zum Main Station Stop SB,,43.692624,-79.769182,,,0,,,1
9620,1782,Main St N at Rosedale Ave,,43.691152,-79.767144,,,0,,,1
9630,1783,Main St N s/of David St,,43.690002,-79.7656,,,0,,,1
9640,1784,Main St at Church St,,43.688255,-79.763306,,,0,,,1
9650,1785,Nelson - Zum Main Station Stop SB,,43.687315,-79.761995,,,0,,,1
9660,1786,Main St N at Queen St W,,43.68601,-79.760249,,,0,,,1
9670,1787,Wellington - Zum Main Station Stop SB,,43.684823,-79.758638,,,0,,,1
9680,1788,Main St S opp Woodbrook Dr,,43.682732,-79.75581,,,0,,,1
9700,1790,Main St opp Clarence St,,43.680391,-79.752644,,,0,,,1
9715,1792,Main St S btwn Harold St & Nanwood Dr,,43.678329,-79.749913,,,0,,,1
9720,1793,Nanwood - Zum Main Station Stop SB,,43.676302,-79.747298,,,0,,,1
9730,1794,Main St at Elgin Dr,,43.673604,-79.743771,,,0,,,1
9740,1795,Main St opp Peel Village Pkwy,,43.671228,-79.74058,,,0,,,1
9750,1796,Main St at Charolais Blvd,,43.669998,-79.738859,,,0,,,1
9760,1797,Main St S at Bartley Bull Pkwy,,43.667601,-79.735719,,,0,,,1
9770,1799,Hurontario St at Lancashire Ln (School Special),,43.664838,-79.731981,,,0,,,1
9780,1800,Sir Lou - Zum Main Station Stop SB,,43.661193,-79.727079,,,0,,,1
9785,1801,Ray Lawson - Zum Main Station Stop SB,,43.658696,-79.723783,,,0,,,1
9790,1802,County Court Blvd e/of Hurontario St,,43.65952,-79.722193,,,0,,,1
9800,1803,County Court Blvd e/of Havelock Dr-School Special,,43.660421,-79.721198,,,0,,,1
9820,1805,County Court Blvd at Mossbank Dr,,43.663665,-79.721013,,,0,,,1
9830,1806,County Court Blvd at Seminole Dr,,43.664439,-79.723741,,,0,,,1
9880,1809,Clark Blvd opp Kings Cross Rd,,43.718487,-79.712897,,,0,,,1
9890,1810,Clark Blvd at Edenborough Dr,,43.720721,-79.710049,,,0,,,1
9900,1811,Clark Blvd at Earnscliffe Gate,,43.722986,-79.709148,,,0,,,1
9910,1812,Clark Blvd e/of Esplanade Rd,,43.724839,-79.708325,,,0,,,1
9920,1813,Clark Blvd e/of Finchgate Blvd,,43.72629,-79.707681,,,0,,,1
9930,1814,Clark Blvd opp Folkstone Cres (W),,43.727588,-79.705991,,,0,,,1
9940,1815,Clark Blvd at Elrose Rd,,43.727281,-79.702531,,,0,,,1
9950,1816,Clark Blvd at Eastbourne Dr,,43.726384,-79.70068,,,0,,,1
9960,1817,Clark Blvd at Torbram Rd,,43.727127,-79.697851,,,0,,,1
9970,1818,E Clark Blvd e/of Torbram Rd,,43.728576,-79.695897,,,0,,,0
9980,1819,Summerlea Rd n/of Clark Blvd,,43.730752,-79.694403,,,0,,,1
9990,1820,Summerlea Rd at Colony Crt,,43.731917,-79.695989,,,0,,,1
10000,1821,Summerlea Rd n/of RRX,,43.733715,-79.69844,,,0,,,1
10010,1822,Summerlea Rd n/of Imperial Gate,,43.735407,-79.70073,,,0,,,1
10020,1823,Walker Dr at 300 Walker Dr,,43.737988,-79.6986,,,0,,,1
10030,1824,Walker Dr e/of Gateway Blvd,,43.738797,-79.697662,,,0,,,1
10040,1825,Walker Dr s/of Coventry Rd,,43.738341,-79.695343,,,0,,,1
10050,1826,Walker Dr at Shaftsbury  Lane,,43.736567,-79.692939,,,0,,,1
10060,1827,Walker Dr opp Indell Lane,,43.735315,-79.691243,,,0,,,1
10065,1828,Walker Dr at Clark Blvd,,43.734137,-79.689667,,,0,,,1
10070,1829,Clark Blvd at Airport Rd,,43.735133,-79.686686,,,0,,,1
10080,1830,Clark Blvd at Devon Rd,,43.736654,-79.68458,,,0,,,1
10100,1831,Devon Rd at 74 Devon Rd,,43.735087,-79.682146,,,0,,,0
10110,1833,Devon Rd at 50 Devon Rd,,43.733095,-79.679478,,,0,,,0
10120,1834,Devon Rd at Intermodal Dr,,43.731758,-79.6778,,,0,,,0
10125,1835,Intermodal - Zum Bovaird Station Stop NB,,43.731185,-79.678794,,,0,,,1
10130,1836,Woodslea - Zum Bovaird Station Stop SB,,43.730852,-79.678994,,,0,,,1
10135,1837,Woodslea Rd w/of Airport Road,,43.730367,-79.679315,,,0,,,0
10140,1838,Woodslea Rd at Walker Dr,,43.729021,-79.681154,,,0,,,0
10150,1839,Walker Dr at 98 Walker Dr,,43.726933,-79.679882,,,0,,,1
10160,1840,Walker Dr at 90 Walker Dr,,43.725784,-79.678476,,,0,,,0
10170,1841,Walker Dr at 80 Walker Dr,,43.723985,-79.678554,,,0,,,1
10180,1842,Walker Dr at 78 Walker Dr,,43.722218,-79.678865,,,0,,,0
10190,1843,Summerlea Rd n/of Walker Dr,,43.720427,-79.680419,,,0,,,0
10200,1844,Summerlea Rd at 75 Summerlea Rd,,43.721981,-79.682506,,,0,,,0
10210,1845,Summerlea Rd at 99 Summerlea Rd,,43.72344,-79.684453,,,0,,,0
10230,1847,Summerlea Rd n/of Trojan Crt,,43.725068,-79.686723,,,0,,,0
10240,1848,Summerlea Rd at Atlas Crt,,43.727524,-79.690024,,,0,,,0
10250,1849,Summerlea Rd at Barton Crt,,43.72911,-79.692165,,,0,,,0
10260,1850,W Clark Blvd e/of Torbram Rd,,43.727742,-79.697413,,,0,,,0
10265,1851,Clark Blvd btwn Summerlea and Torbram Rd,,43.728869,-79.695848,,,0,,,0
10270,1852,Clark Blvd opp Eastbourne Dr,,43.726529,-79.70005,,,0,,,1
10280,1853,Clark Blvd w/of Folkstone Cres (E),,43.72743,-79.702428,,,0,,,1
10290,1854,Clark Blvd e/of Folkstone Cres,,43.727868,-79.705577,,,0,,,1
10300,1855,Clark Blvd at Finchgate Blvd,,43.726214,-79.707958,,,0,,,1
10310,1856,Clark Blvd opp Esplanade Rd,,43.724976,-79.708506,,,0,,,1
10320,1857,Clark Blvd opp Earnscliffe Gate,,43.723437,-79.709189,,,0,,,1
10330,1858,Clark Blvd at Fleetwood Cres,,43.721298,-79.709982,,,0,,,1
10340,1859,Clark Blvd at Bramalea Rd,,43.720089,-79.71097,,,0,,,1
10350,1860,Clark Blvd at Kings Cross Rd,,43.718978,-79.712635,,,0,,,1
10360,1861,Clark Blvd at Central Park Dr,,43.717056,-79.71519,,,0,,,1
10400,1865,Mountainberry Rd e/of Snowcap Rd,,43.764747,-79.732818,,,0,,,1
10420,1866,Mountainberry Rd at Snow Leopard Crt (N),,43.766079,-79.730315,,,0,,,1
10440,1868,Mountainberry Rd btwn Snow Leopard & Narrow Valley,,43.764389,-79.726777,,,0,,,0
10450,1869,Mountainberry Rd opp Mount Rainer Cres (W),,43.761644,-79.727372,,,0,,,0
10460,1870,Mountainberry Rd at Snowcap Rd,,43.761034,-79.730683,,,0,,,0
10470,1871,Peter Robertson Blvd w/of Mountainash Rd,,43.760313,-79.733061,,,0,,,1
10480,1872,Peter Robertson Blvd at Eagleridge Dr,,43.758467,-79.735253,,,0,,,1
10490,1873,Peter Robertson Blvd w/of Torbram Rd,,43.756367,-79.73763,,,0,,,1
10500,1874,Peter Robertson Blvd at Barley Field Rd,,43.754432,-79.73989,,,0,,,1
10510,1875,Peter Robertson Blvd at Sunny Meadow Blvd,,43.75213,-79.741947,,,0,,,1
10520,1876,Sunny Meadow Blvd opp Oatfield Rd,,43.752683,-79.743198,,,0,,,1
10530,1877,Sunny Meadow Blvd at Red Clover Rd,,43.754151,-79.745216,,,0,,,1
10540,1878,Sunny Meadow Blvd at Red River Rd,,43.755165,-79.746578,,,0,,,1
10580,1882,Black Forest Dr at Sprucelands Ave,,43.74951,-79.753486,,,0,,,1
10590,1883,Black Forest Dr opp Willow Park Dr,,43.747903,-79.754774,,,0,,,1
10593,1884,Black Forest Dr opp Bunchberry Way,,43.746442,-79.755915,,,0,,,1
10595,1885,Fernforest Dr s/of Black Forest Dr (at Bobcat St),,43.743795,-79.755516,,,0,,,1
10600,1886,Peter Robertson Blvd w/of Fernforest Dr,,43.740619,-79.754259,,,0,,,0
10610,1887,Peter Robertson Blvd w/of Hickroybush Ave,,43.740349,-79.757684,,,0,,,1
10620,1888,Peter Robertson Blvd at Dixie Rd,,43.739325,-79.75972,,,0,,,1
10630,1889,Guru Nanak St e/of Canada Goose Blvd,,43.737447,-79.76166,,,0,,,1
10640,1890,Guru Nanak St e/of Blue Whale Blvd,,43.736316,-79.762747,,,0,,,1
10650,1891,Guru Nanak St opp Riverbank Rd,,43.734262,-79.763841,,,0,,,1
10730,1898,Fernforest Dr at Kimberly Cres (S),,43.741059,-79.753897,,,0,,,1
10740,1899,Fernforest Dr at Hackberry Gate,,43.743937,-79.755472,,,0,,,1
10820,1907,Sunny Meadow Blvd s/of Larkspur Rd,,43.754982,-79.746542,,,0,,,1
10830,1908,Sunny Meadow Blvd at Squirreltail Way,,43.754234,-79.745554,,,0,,,1
10840,1909,Sunny Meadow Blvd at Oatfield Rd,,43.753119,-79.744055,,,0,,,1
10845,1910,Sunny Meadow Blvd n/of Peter Robertson Blvd,,43.751907,-79.742467,,,0,,,1
10855,1912,Sunny Meadow Blvd opp Thunderbird Trail,,43.750392,-79.741241,,,0,,,1
10930,1921,Sunny Meadow Blvd at Australia Dr,,43.762952,-79.757761,,,0,,,1
10940,1922,Sunny Meadow Blvd opp Black Cherry Lane,,43.759145,-79.757227,,,0,,,1
10950,1923,Sunny Meadow Blvd n/of Sandalwood Pkwy,,43.757478,-79.754857,,,0,,,1
10960,1924,Sandalwood Pkwy w/of Bramalea Rd,,43.753657,-79.758099,,,0,,,1
10970,1925,Sandalwood Pky E at Rattlesnake Rd,,43.752768,-79.759587,,,0,,,1
10975,1926,Sandalwood Pky E btwn Rattlesnake and Fernforest,,43.751322,-79.761982,,,0,,,1
10980,1927,Sandalwood Pky at Fernforest Dr,,43.750267,-79.763544,,,0,,,1
10990,1928,Sandalwood Pky E btwn Fernforest Dr & Dixie Rd,,43.74815,-79.766007,,,0,,,1
11000,1929,Sandalwood Pky E opp Springtown Trail,,43.746646,-79.767543,,,0,,,1
11010,1930,Sandalwood Pky E w/of Dixie Rd,,43.744874,-79.769621,,,0,,,1
11060,1933,Trinity Common Terminal Route 32/23 WB/ 300 Stop,,43.731442,-79.763449,,,0,place_SPTE,,1
11100,1934,Sandalwood Pky E w/of Heart Lake Rd,,43.736017,-79.781396,,,0,,,1
11110,1935,Sandalwood Pky E at Royal Palm Dr (E),,43.733799,-79.785386,,,0,,,1
11120,1936,Sandalwood Pky E at Royal Palm Dr (W),,43.731589,-79.788119,,,0,,,1
11130,1937,Sandalwood Pky E at Richvale Dr (WB),,43.730283,-79.790017,,,0,,,1
11140,1938,Sandalwood Pky E at Kennedy Rd N,,43.728444,-79.793196,,,0,,,0
11150,1939,Kennedy Rd N n/of Sandalwood Pky E,,43.729481,-79.794935,,,0,,,1
11160,1940,Conestoga Dr at Mondragon Circle,,43.729816,-79.797005,,,0,,,0
11170,1941,Heart Lake Terminal Route 23 WB Stop,,43.727787,-79.798337,,,0,place_HTLK,,1
11180,1942,Conestoga Dr at Loafers Lake Lane,,43.726167,-79.798632,,,0,,,1
11240,1943,Sandalwood Pky W w/of Hurontario St,,43.716748,-79.804407,,,0,,,1
11250,1944,Sandalwood Pkwy at 130 Sandalwood Pkwy,,43.71424,-79.807185,,,0,,,1
11260,1945,Sandalwood Pky n/of Van Kirk Dr,,43.710048,-79.810315,,,0,,,1
11290,1947,Queen Mary Dr at Gold Park Place,,43.703697,-79.813888,,,0,,,1
11300,1948,Queen Mary Dr s/of Woodvalley Dr,,43.701818,-79.810658,,,0,,,1
11305,1949,Queen Mary Dr s/of Whispering Hills Gate,,43.700837,-79.808543,,,0,,,0
11310,1950,Queen Mary Dr s/of Lormel Gate,,43.69967,-79.805848,,,0,,,0
11320,1951,Queen Mary Dr s/of Sunnybrook Cres (S),,43.69684,-79.804625,,,0,,,1
11330,1952,Queen Mary Dr at Briarcroft Rd (E),,43.695467,-79.805037,,,0,,,1
11350,1954,Edenbrook Hill Dr at Briarcroft Rd (W),,43.694878,-79.807812,,,0,,,1
11351,1955,Edenbrook Hill Dr n/of Packham Cr,,43.695083,-79.810283,,,0,,,1
11360,1956,Edenbrook Hill Dr s/of Duffield Rd,,43.695563,-79.813363,,,0,,,1
11365,1957,Edenbrook Hill Dr btwn Amboise Cres & Bonistel Cr,,43.696607,-79.815219,,,0,,,1
11405,1962,Worthington Ave s/of Fairhill Ave,,43.686018,-79.822117,,,0,,,1
11410,1963,Worthington Ave at Gabrielle Dr,,43.685197,-79.821002,,,0,,,1
11420,1964,Worthington Ave at Clayborne Ave,,43.683747,-79.819055,,,0,,,0
11430,1965,Worthington Ave at Salvation Rd,,43.681312,-79.816067,,,0,,,1
11440,1966,Mount Pleasant GO Station  Route 9 Stop,,43.674492,-79.822436,,,0,place_MPGO,,1
11460,1967,Worthington Ave n/of Salvation Rd,,43.681599,-79.816175,,,0,,,1
11470,1968,Worthington Ave opp Clayborne Ave,,43.683634,-79.818691,,,0,,,0
11480,1969,Worthington Ave opp Gabrielle Dr,,43.684771,-79.82021,,,0,,,1
11485,1970,Worthington Ave at Fairhill Ave,,43.686189,-79.822134,,,0,,,1
11490,1971,Brisdale Dr opp Schooner Dr,,43.688233,-79.821818,,,0,,,0
11510,1973,Brisdale Dr s/of Sandy Beach Rd,,43.689711,-79.824689,,,0,,,1
11520,1974,Brisdale Dr n/of Wetmeadow Dr,,43.691822,-79.827545,,,0,,,1
11530,1975,Brisdale Dr s/of Sandalwood Pky,,43.693228,-79.829543,,,0,,,1
11540,1976,Brisdale Dr at Ranchero Dr opp St. Edmund Campion,,43.694333,-79.831068,,,0,,,1
11550,1977,Brisdale Dr at Ramsey Lane,,43.696092,-79.833487,,,0,,,1
11560,1978,Botavia Downs Dr e/of Brisdale Dr,,43.697495,-79.834583,,,0,,,1
11570,1979,Botavia Downs Dr at Trumpet Valley Blvd,,43.69916,-79.831858,,,0,,,0
11590,1981,Earlsbridge Blvd at Edenbrook Hill Dr,,43.703928,-79.827061,,,0,,,0
11630,1986,Sandalwood Pky w/of Queen Mary Dr,,43.703913,-79.815221,,,0,,,1
11640,1987,E Sandalwood Pky at McLaughlin Rd,,43.706321,-79.812096,,,0,,,1
11650,1988,Sandalwood Pky s/of Van Kirk Dr,,43.709289,-79.810014,,,0,,,1
11660,1989,Sandalwood Pkwy opp 130 Sandalwood Pkwy,,43.71401,-79.806956,,,0,,,1
11670,1990,Sandalwood Pky W at Hurontario St,,43.71705,-79.803701,,,0,,,1
11730,1991,Heart Lake Terminal Route 204/218 Stop,,43.727784,-79.798138,,,0,place_HTLK,,1
11750,1992,Sandalwood Pky E at Richvale Dr (EB),,43.72969,-79.790252,,,0,,,1
11760,1993,Sandalwood Pky E opp Royal Palm Dr (W),,43.731029,-79.788573,,,0,,,1
11770,1994,Sandalwood Pky E at Glover Gate,,43.73334,-79.785423,,,0,,,1
11780,1995,Sandalwood Pky E at Heart Lake Rd,,43.735214,-79.782145,,,0,,,1
11790,1996,Great Lakes Dr at 400 Great Lakes Dr,,43.741018,-79.773372,,,0,,,1
11810,1998,Great Lakes Dr s/of Masjid Dr (St. Isac E.S.),,43.736479,-79.769078,,,0,,,1
11830,2000,Trinity Common Terminal Route 23 EB Stop,,43.731211,-79.763296,,,0,place_SPTE,,1
11840,2001,Great Lakes Dr at Beachsurf Rd,,43.734159,-79.766233,,,0,,,1
11850,2002,Great Lakes Dr s/of Masjid Dr,,43.736831,-79.769172,,,0,,,1
11860,2003,Great Lakes Dr at Harold M. Brathwaite S.S.,,43.737772,-79.770395,,,0,,,1
11870,2004,Great Lakes Dr at Sandalwood Pky,,43.741187,-79.773169,,,0,,,1
11875,2005,Sandalwood Pkwy at Save Max Sports Centre,,43.743204,-79.771272,,,0,,,1
11880,2006,E Sandalwood Pky at Dixie Rd,,43.744755,-79.769211,,,0,,,1
11890,2007,Sandalwood Pky E e/of Springtown Trail,,43.74674,-79.767057,,,0,,,1
11910,2009,Sandalwood Pky E at Pinecone Way,,43.752311,-79.759944,,,0,,,1
11920,2010,Sandalwood Pky E at Bramalea Rd,,43.753766,-79.757529,,,0,,,1
11940,2012,Sandalwood Pky E e/of Sunny Meadow Blvd,,43.757983,-79.753931,,,0,,,1
11950,2013,Sandalwood Pky E opp Black Cherry Lane,,43.75911,-79.753274,,,0,,,1
11960,2014,Sandalwood Pky E at Cobblestone Crt,,43.76107,-79.752331,,,0,,,1
11970,2015,Sandalwood Pky E at Lakespring Gate,,43.763809,-79.750267,,,0,,,1
11975,2016,Sandalwood Pky at Torbram Rd,,43.764935,-79.748693,,,0,,,1
11980,2017,Torbram Rd n/of Sandalwood Pky E,,43.765669,-79.748941,,,0,,,1
12040,2018,English St w/of Main St N,,43.694392,-79.771965,,,0,,,0
12050,2019,English St at Murray St,,43.693415,-79.773031,,,0,,,0
12060,2020,English St e/of Talbot St,,43.690717,-79.775961,,,0,,,1
12070,2021,English St at Vodden St W,,43.689402,-79.776209,,,0,,,1
12080,2022,Vodden St W at Talbot St,,43.689412,-79.778632,,,0,,,1
12090,2023,Vodden St W at Roseland Gate,,43.689791,-79.78227,,,0,,,1
12100,2024,N Vodden St W at Williams Pky,,43.690378,-79.784479,,,0,,,1
12110,2025,N Royal Orchard Dr n/of Williams Pky,,43.690972,-79.7855,,,0,,,1
12120,2026,N Royal Orchard Dr at Trailridge Dr,,43.69221,-79.786229,,,0,,,1
12130,2027,Royal Orchard Dr opp Dunhill Rd,,43.693799,-79.78685,,,0,,,1
12140,2028,Royal Orchard Dr at Suncrest Dr,,43.694572,-79.787753,,,0,,,1
12150,2030,Royal Orchard Dr at Richwood Cres (S),,43.696492,-79.790311,,,0,,,1
12160,2031,Royal Orchard Dr at Richwood Cres (N),,43.696953,-79.792117,,,0,,,1
12170,2032,Royal Orchard Dr at Bovaird Dr,,43.697958,-79.794595,,,0,,,1
12180,2033,Van Kirk Dr at Canam Cres (S),,43.698944,-79.796085,,,0,,,1
12190,2034,Van Kirk Dr at Canam Cres (N),,43.700077,-79.797796,,,0,,,1
12200,2035,Van Kirk Dr n/of Railway Tracks (northbound),,43.703733,-79.799859,,,0,,,1
12210,2036,Van Kirk Dr at 95 Van Kirk Dr,,43.705715,-79.801568,,,0,,,1
12220,2037,Van Kirk Dr at 111 Van Kirk Dr,,43.707616,-79.804139,,,0,,,0
12230,2038,Van Kirk Dr opp Regan Rd (N),,43.709138,-79.806348,,,0,,,1
12240,2039,Van Kirk Dr s/of Sandalwood Pky W,,43.709572,-79.808386,,,0,,,1
12250,2040,Van Kirk Dr n/of Sandalwood Pky W,,43.709698,-79.811081,,,0,,,1
12260,2041,Van Kirk Dr at Van Scott Dr,,43.710786,-79.814119,,,0,,,1
12270,2042,Van Kirk Dr at Viceroy Cres (S),,43.713484,-79.817776,,,0,,,1
12280,2043,Van Kirk Dr at Van Scott Dr (N),,43.715376,-79.818965,,,0,,,1
12290,2044,N Van Kirk Dr s/of Wanless Dr,,43.718267,-79.821419,,,0,,,1
12300,2045,Wanless Dr opp Tournament Dr,,43.723651,-79.816173,,,0,,,1
12330,2046,Conestoga Dr n/of Sutter Ave,,43.724827,-79.794132,,,0,,,1
12360,2050,Conestoga Dr n/of Ebby Ave,,43.718128,-79.78835,,,0,,,0
12370,2052,Conestoga Dr s/of Ebby Ave (at Heart Lake S.S.),,43.717049,-79.788034,,,0,,,1
12400,2057,Wanless Dr at Hurontario St,,43.725304,-79.814391,,,0,,,1
12410,2058,Hurontario St at 10886 Hurontario St,,43.723918,-79.811726,,,0,,,1
12420,2059,Hurontario St opp Petworth Dr,,43.72138,-79.808256,,,0,,,1
12425,2060,Sandalwood - Zum Main Station Stop NB,,43.718308,-79.803496,,,0,,,1
12470,2061,Sandalwood Pky E e/of Conestoga Dr,,43.726169,-79.795726,,,0,,,1
12560,2066,Hurontario St s/of Petworth Rd,,43.721688,-79.80812,,,0,,,1
12565,2067,Hurontario St opp 10866 Hurontario St,,43.723859,-79.811146,,,0,,,0
12568,2068,Hurontario St s/of Conservation Dr,,43.725603,-79.813447,,,0,,,0
12570,2069,Wanless Dr w/of Hurontario St,,43.725366,-79.814736,,,0,,,1
12580,2070,Wanless Dr e/of Tournament Dr,,43.724198,-79.815976,,,0,,,1
12590,2072,S Van Kirk Dr s/of Wanless Dr,,43.717975,-79.821227,,,0,,,1
12600,2073,Van Kirk Dr n/of Van Scott Dr,,43.715718,-79.819335,,,0,,,1
12610,2074,Van Kirk Dr opp Viceroy Cres (S),,43.713579,-79.818039,,,0,,,1
12615,2075,Van Kirk Dr s/of Mossgrove Cres,,43.711264,-79.814976,,,0,,,1
12630,2078,Van Kirk Dr at Cedarvalley Blvd,,43.709841,-79.81271,,,0,,,0
12640,2079,Van Kirk Dr s/of Sandalwood Pkwy,,43.709428,-79.808162,,,0,,,1
12650,2080,Van Kirk Dr s/of Regan Rd (N) (opp 111 Van Kirk Dr,,43.707267,-79.803954,,,0,,,1
12660,2081,Van Kirk Dr s/of Regan Rd (N) (opp 105 Van Kirk Dr,,43.705858,-79.802043,,,0,,,0
12675,2082,Van Kirk Dr n/of Railway Tracks (southbound),,43.704045,-79.800176,,,0,,,1
12678,2083,Van Kirk Dr at Regan Rd,,43.700368,-79.798468,,,0,,,1
12690,2084,Van Kirk Dr n/of Bovaird Dr,,43.698517,-79.795841,,,0,,,1
12710,2086,Royal Orchard Dr at Springview Dr (N),,43.696966,-79.792769,,,0,,,1
12715,2087,Royal Orchard Dr opp Richwood Cres (S),,43.696484,-79.790618,,,0,,,1
12720,2088,Royal Orchard Dr at Red Maple Dr,,43.694533,-79.787932,,,0,,,1
12730,2089,Royal Orchard Dr at Springview Dr (S),,43.691893,-79.786336,,,0,,,1
12740,2090,S Royal Orchard Dr at Williams Pky,,43.690638,-79.785196,,,0,,,1
12750,2091,Vodden St W s/of Williams Pky W,,43.690189,-79.784406,,,0,,,1
12760,2092,Vodden St W at Brookview Rd,,43.689577,-79.781594,,,0,,,1
12770,2093,Vodden St W opp Talbot St,,43.689289,-79.778734,,,0,,,1
12780,2094,Vodden St W at Pleasantview Ave,,43.689176,-79.77624,,,0,,,1
12790,2096,English St opp Talbot St,,43.690471,-79.77599,,,0,,,0
12795,2097,English St n/of Alison Crt ( 41 English St ),,43.692229,-79.774154,,,0,,,1
12800,2098,English St opp Murray St,,43.693593,-79.772665,,,0,,,1
12810,2099,English St at Main St,,43.694445,-79.771732,,,0,,,1
12840,2100,Main St N at Market St,,43.689215,-79.764533,,,0,,,1
12920,2102,Vodden St W w/of Main St N,,43.692481,-79.770266,,,0,,,1
12930,2103,Vodden St W at Rosebud Ave,,43.690418,-79.772554,,,0,,,0
12940,2104,Vodden St W at English St,,43.68941,-79.775585,,,0,,,1
12970,2105,W Williams Pky W at Royal Orchard Dr,,43.690301,-79.785364,,,0,,,1
12980,2106,Williams Pky W at McLaughlin Rd N,,43.688722,-79.78719,,,0,,,1
12990,2107,Williams Pky W w/of McLaughlin Rd N,,43.686896,-79.788784,,,0,,,1
13000,2108,Williams Pky W at Fletchers Creek Blvd,,43.684688,-79.790984,,,0,,,1
13010,2109,Fletchers Creek Blvd n/of Porchlight Rd,,43.686241,-79.794574,,,0,,,1
13020,2110,Fletchers Creek Blvd opp Binder Twine Trail,,43.687207,-79.797559,,,0,,,1
13030,2111,Fletchers Creek Blvd at Dwellers Rd,,43.689069,-79.800822,,,0,,,1
13040,2112,Edenbrook Hill Dr at Queen Anne Dr,,43.692733,-79.804864,,,0,,,1
13070,2113,Edenbrook Hill Dr opp Peachleaf Cres,,43.697831,-79.817339,,,0,,,1
13080,2114,N Edenbrook Hill Dr at Sandalwood Pky,,43.699143,-79.819608,,,0,,,1
13090,2115,Edenbrook Hill Dr n/of River Rock Cres (S),,43.700213,-79.821405,,,0,,,1
13100,2116,Edenbrook Hill Dr at Belinda Dr,,43.702573,-79.82369,,,0,,,0
13110,2117,Edenbrook Hill Dr s/of Earlsbridge Blvd,,43.703988,-79.826325,,,0,,,0
13120,2119,Edenbrook Hill Dr opp Ridgemore Cres (S),,43.706224,-79.830141,,,0,,,0
13130,2120,E Edenbrook Hill Dr at Wanless Dr,,43.707799,-79.832271,,,0,,,0
13140,2121,Wanless Dr e/of Edenbrook Hill Dr,,43.709392,-79.831499,,,0,,,1
13150,2122,Wanless Dr w/of Queen Mary Dr,,43.71283,-79.827652,,,0,,,1
13160,2123,Wanless Dr e/of McLaughlin Rd N,,43.716123,-79.823919,,,0,,,1
13170,2124,Wanless Dr w/of Van Kirk Dr,,43.718109,-79.821725,,,0,,,1
13230,2128,Conservation Dr opp Axminster Rd - 201 School Only,,43.734655,-79.804767,,,0,,,0
13240,2129,Kennedy Dr N s/of Conservation Dr,,43.735241,-79.803152,,,0,,,1
13250,2130,Kennedy Rd N opp McFadden Dr,,43.734292,-79.801829,,,0,,,1
13260,2131,Kennedy Rd N s/of Somerset Dr,,43.731715,-79.798335,,,0,,,1
13385,2137,Kennedy Rd N at McFadden Dr - 201 School Only,,43.7342,-79.801213,,,0,,,0
13400,2139,Conservation Dr at Axminister Rd - 201 School Only,,43.734663,-79.804951,,,0,,,0
13410,2140,Conservation Dr at Carnforth Dr - 201 School Only,,43.73314,-79.806585,,,0,,,0
13470,2144,Wanless Dr e/of Van Kirk Dr,,43.718753,-79.821471,,,0,place_WAMG,,1
13480,2145,McLaughlin Rd s/of Wanless Dr,,43.715103,-79.82374,,,0,,,1
13610,2153,Edenbrook Hill Dr opp Queen Mary Dr,,43.693843,-79.806612,,,0,,,0
13620,2154,Edenbrook Hill Dr n/of Bovaird Dr,,43.691652,-79.803608,,,0,,,1
13630,2155,Fletchers Creek Blvd s/of Bovaird Dr W,,43.690715,-79.802427,,,0,,,1
13650,2156,Fletchers Creek Blvd at Binder Twine Trail,,43.687067,-79.797543,,,0,,,1
13660,2157,Fletchers Creek Blvd opp Porchlight Rd,,43.685938,-79.793997,,,0,,,1
13680,2158,Williams Pky W e/of McLaughlin Rd N,,43.688803,-79.786687,,,0,,,1
13730,2159,Vodden St W at Mill St N,,43.690033,-79.772855,,,0,,,1
13740,2160,Vodden St W at Main St N,,43.692655,-79.769668,,,0,,,1
13860,2163,McLaughlin Rd at Charolais Blvd,,43.660158,-79.748793,,,0,,,1
13870,2164,McLaughlin Rd S at 8351 McLaughlin Rd S,,43.663159,-79.752884,,,0,,,1
13880,2165,McLaughlin Rd S n/of Elgin St,,43.664354,-79.754436,,,0,,,1
13895,2166,McLaughlin Rd S n/of Curtis Dr,,43.665555,-79.756153,,,0,,,1
13900,2167,McLaughlin Rd at Harold St,,43.668404,-79.760023,,,0,,,1
13910,2168,McLaughlin Rd S at John Knox Christian School,,43.67156,-79.764321,,,0,,,1
13920,2169,McLaughlin Rd S at Corona Gate,,43.672638,-79.765763,,,0,,,0
13930,2170,Flower City Community Campus Route 1/1A/3A/57 Stop,,43.671368,-79.769836,,,0,,,1
13935,2171,McLaughlin Rd S n/of Bufford Dr,,43.674693,-79.768574,,,0,,,1
13940,2172,McLaughlin Rd S at Queen St W,,43.675838,-79.770087,,,0,,,1
13950,2173,McLaughlin Rd n/of Dusty Lane,,43.677695,-79.772615,,,0,,,0
13960,2174,McLaughlin Rd N at Denison Ave,,43.678636,-79.773886,,,0,,,1
13970,2175,McLaughlin Rd N opp Campbell Dr,,43.680767,-79.77682,,,0,,,1
13980,2176,McLaughlin Rd opp Flowertown Ave,,43.682301,-79.778884,,,0,,,1
13990,2177,McLaughlin Rd N at 9381 McLaughlin Rd N,,43.684458,-79.781789,,,0,,,1
13995,2178,McLaughlin Rd N opp 9500 McLaughlin Rd N,,43.68542,-79.783091,,,0,,,1
14000,2179,McLaughlin Rd n/of Brookview Rd,,43.68637,-79.784369,,,0,,,1
14010,2180,McLaughlin Rd s/of Williams Pky,,43.688249,-79.786895,,,0,,,1
14030,2182,McLaughlin Rd N btwn Williams Pky and Red Maple Dr,,43.690196,-79.789522,,,0,,,1
14040,2183,McLaughlin Rd s/of Red Maple Dr,,43.691352,-79.791061,,,0,,,1
14050,2184,McLaughlin Rd N opp Homestead Townhouses,,43.694859,-79.795829,,,0,,,1
14060,2185,McLaughlin Rd s/of Bovaird Dr,,43.695807,-79.797097,,,0,,,1
14070,2186,McLaughlin Rd N opp Marycroft Crt,,43.697846,-79.799779,,,0,,,1
14080,2187,McLaughlin Rd N at Lowry Dr,,43.701125,-79.80428,,,0,,,1
14085,2188,McLaughlin Rd btwn Lowry Dr & Sandalwood Pkwy,,43.703801,-79.807901,,,0,,,1
14090,2189,McLaughlin Rd s/of Sandalwood Pky,,43.706401,-79.811382,,,0,,,1
14100,2190,McLaughlin Rd N at Potters Wheel Gate,,43.709401,-79.815585,,,0,,,1
14110,2191,McLaughlin Rd N n/of Van Scott Dr,,43.71391,-79.82176,,,0,,,1
14135,2194,Tournament Dr at Bissell,,43.725092,-79.81797,,,0,,,0
14140,2195,Tournament Dr at Cresthaven Rd,,43.725844,-79.819308,,,0,,,1
14150,2196,Cresthaven Rd at Zachary Dr - School Only,,43.725935,-79.822829,,,0,,,0
14160,2197,Brinkley Dr e/of Creekwood Dr,,43.727828,-79.823747,,,0,,,1
14170,2198,Cresthaven Rd opp Baccarat Cres (S),,43.728231,-79.826134,,,0,,,0
14190,2200,Robertson Davies Dr at Sundridge St,,43.731166,-79.829537,,,0,,,1
14200,2201,Robertson Davies Dr opp Twin Willow Cres,,43.732412,-79.832178,,,0,,,1
14210,2202,Robertson Davies Dr at Collingwood Ave,,43.733483,-79.833883,,,0,,,1
14220,2203,Collingwood Ave at 21 Collingwood Ave,,43.734565,-79.833086,,,0,,,1
14230,2204,Collingwood Ave at Hurontario St,,43.737272,-79.829999,,,0,,,1
14235,2205,Hurontario St at Mayfield Rd,,43.733942,-79.825552,,,0,,,1
14240,2206,Hurontario St s/of Mayfield Rd,,43.732503,-79.823542,,,0,place_HUMA,,1
14270,2208,Hurontario St btwn Mayfield Rd & Brinkley Dr,,43.731163,-79.821707,,,0,,,0
14280,2209,Hurontario St n/of Brinkley Dr,,43.730532,-79.820781,,,0,,,1
14370,2213,McLaughlin Rd N at Earlsbridge Blvd,,43.71377,-79.822088,,,0,,,1
14380,2214,McLaughlin Rd N opp Potters Wheel Gate,,43.709673,-79.816455,,,0,,,1
14390,2215,McLaughlin Rd n/of Sandalwood Pky,,43.70676,-79.812358,,,0,,,1
14396,2217,McLaughlin Rd btwn Sandalwood Pkwy & Lormel Gate,,43.70389,-79.808392,,,0,,,1
14400,2218,McLaughlin Rd N at Lormel Gate,,43.701253,-79.804915,,,0,,,1
14410,2220,McLaughlin Rd N at Marycroft Crt,,43.698003,-79.800472,,,0,,,1
14420,2221,McLaughlin Rd n/of Bovaird Dr,,43.696125,-79.797939,,,0,,,1
14430,2222,McLaughlin Rd N at Homestead Townhouses,,43.694974,-79.796411,,,0,,,1
14440,2223,McLaughlin Rd n/of Red Maple Dr,,43.691823,-79.792143,,,0,,,1
14450,2224,McLaughlin Rd n/of Williams Pky,,43.688498,-79.787632,,,0,,,1
14470,2226,McLaughlin Rd at Brookview Rd,,43.686799,-79.785308,,,0,,,1
14480,2227,McLaughlin Rd N at 9500 McLaughlin Rd N,,43.685458,-79.783558,,,0,,,1
14490,2228,McLaughlin Rd N at 9446 McLaughlin Rd N,,43.684405,-79.782056,,,0,,,1
14500,2229,McLaughlin Rd at Flowertown Ave,,43.682404,-79.779367,,,0,,,0
14510,2230,McLaughlin Rd N n/of Campbell Dr,,43.680917,-79.777364,,,0,,,1
14520,2231,McLaughlin Rd N opp Amsterdam Cres,,43.680096,-79.776202,,,0,,,1
14530,2232,McLaughlin Rd opp Denison Ave,,43.678537,-79.774084,,,0,,,1
14540,2233,McLaughlin Rd N n/of Horwood Dr,,43.677746,-79.773021,,,0,,,1
14550,2234,McLaughlin Rd N n/of Queen St W,,43.676557,-79.77146,,,0,,,1
14560,2235,McLaughlin Rd S at FCCC Entrance,,43.674312,-79.768543,,,0,,,1
14580,2236,McLaughlin Rd S opp Corona Gate,,43.672486,-79.765969,,,0,,,1
14590,2237,McLaughlin Rd S at 109 McLaughlin Rd,,43.671235,-79.764262,,,0,,,0
14600,2238,McLaughlin Rd at Brown's Ln,,43.668552,-79.760608,,,0,,,1
14610,2239,McLaughlin Rd S opp Curtis Dr,,43.665345,-79.756191,,,0,,,1
14620,2240,McLaughlin Rd S at Elgin St,,43.663708,-79.753967,,,0,,,1
14630,2241,McLaughlin Rd s/of Charolais Blvd,,43.659975,-79.748909,,,0,,,1
14635,2242,McLaughlin Rd S btwn Charolais Blvd & Steeles Ave,,43.657917,-79.746152,,,0,,,1
14780,2253,Airport Rd at Driver Rd,,43.720593,-79.664564,,,0,,,1
14790,2254,Steeles - Zum Bovaird Station Stop NB,,43.723431,-79.668367,,,0,,,1
14800,2255,Airport Rd n/of 407 Ramp,,43.729628,-79.676785,,,0,,,1
14820,2256,Airport Rd btwn Intermodal Dr & Clark Blvd,,43.733769,-79.682381,,,0,,,1
14830,2257,Airport Rd s/of Clark Blvd,,43.735731,-79.684928,,,0,,,1
14840,2258,Airport Rd btwn Clark Blvd & Nevets Rd,,43.738779,-79.689107,,,0,,,1
14850,2259,Airport Rd at Nevets Rd,,43.740657,-79.691564,,,0,,,1
14865,2261,Airport Rd at Woodhill Centre (9105 Airport Rd),,43.745835,-79.698518,,,0,,,1
14870,2262,Airport Rd at Maritime Ontario Blvd,,43.747309,-79.700497,,,0,,,1
14875,2263,Airport Rd at 9263 Airport Rd,,43.749214,-79.703059,,,0,,,1
14890,2265,Williams - Zum Bovaird Station Stop NB,,43.754132,-79.709664,,,0,,,1
14900,2266,Airport Rd btwn Williams Pky E & Cottrelle Blvd,,43.756262,-79.712597,,,0,,,1
14905,2267,Cottrelle - Zum Bovaird Station Stop NB,,43.759208,-79.716555,,,0,,,1
14906,2268,Airport Rd at Triple Crown Dr,,43.760898,-79.718806,,,0,,,1
14910,2269,Airport Rd at Castlemore Rd - Rte 30/35 ONLY,,43.762758,-79.721256,,,0,,,1
14915,2270,Airport Rd at Mistymorning Dr,,43.765355,-79.724787,,,0,,,1
14920,2271,Airport Rd n/of Humberwest Pkwy,,43.769352,-79.730224,,,0,,,1
14930,2272,Airport Rd at Braydon Blvd,,43.772806,-79.734922,,,0,,,1
14940,2273,Airport Rd at Brock Dr,,43.778648,-79.742841,,,0,,,1
14950,2274,Airport Rd at Treeline Blvd,,43.780389,-79.745206,,,0,,,1
14960,2275,Airport Rd at Countryside Dr,,43.782969,-79.748709,,,0,,,1
14970,2276,Airport Rd s/of Lacoste Blvd,,43.786528,-79.753535,,,0,,,0
14980,2277,Airport Rd s/of Mayfield Rd,,43.790917,-79.759413,,,0,,,1
15085,2288,Goreway Dr s/of Luross Gate,,43.778521,-79.718913,,,0,,,0
15090,2289,Goreway Dr at Paper Birch Rd,,43.776065,-79.715582,,,0,,,1
15105,2291,Castlemore Rd w/of Goreway Dr,,43.772325,-79.712058,,,0,,,1
15110,2292,Castlemore Rd e/of Crystall Hill Dr,,43.769918,-79.714829,,,0,,,1
15115,2293,Castlemore Rd at Airport Rd,,43.763896,-79.722073,,,0,,,1
15120,2294,Airport Rd s/of Bovaird Dr E,,43.76273,-79.721967,,,0,,,1
15125,2295,Airport Rd s/of Triple Crown Dr,,43.760585,-79.719076,,,0,,,1
15130,2296,North Park - Zum Bovaird Station Stop SB,,43.758815,-79.716722,,,0,,,1
15140,2297,Airport Rd btwn North Park Dr & Williams Pkwy,,43.755661,-79.712373,,,0,,,0
15160,2299,Williams - Zum Bovaird Station Stop SB,,43.752712,-79.708409,,,0,,,1
15162,2300,Airport Rd at 9264 Airport Rd,,43.749385,-79.70403,,,0,,,1
15165,2301,Airport Rd at 9250 Airport Rd,,43.747683,-79.701749,,,0,,,1
15170,2302,Airport Rd n/of Queen St,,43.743711,-79.696474,,,0,,,1
15190,2304,Airport Rd s/of Coventry Rd,,43.740258,-79.691689,,,0,,,1
15210,2306,Airport Rd n/of Clark Blvd,,43.736208,-79.686244,,,0,,,1
15220,2307,Airport Rd btwn Clark Blvd & Woodslea Rd,,43.734097,-79.683366,,,0,,,1
15240,2308,Steeles - Zum Bovaird Station Stop SB,,43.723031,-79.668578,,,0,,,1
15250,2309,Airport Rd n/of Production Rd,,43.720884,-79.665539,,,0,,,1
15090711,2315,Mount Pleasant GO Station - Route 1 / 561 Stop,,43.674774,-79.822827,,,0,place_MPGO,,1
15090712,2316,James Potter Rd n/of Fahey Dr,,43.651977,-79.767236,,,0,,,1
15090713,2317,James Potter Rd opp Young Dr,,43.650003,-79.763774,,,0,,,1
15370,2319,McMurchy Ave S at Keewatin Gate,,43.661726,-79.739173,,,0,,,1
15380,2320,McMurchy Ave S n/of Pagebrook Crt,,43.663685,-79.741785,,,0,,,1
15390,2321,Charolais Blvd w/of McMurchy Ave S,,43.664914,-79.744388,,,0,,,1
15400,2322,Charolais Blvd w/of Keystone Dr,,43.663628,-79.745793,,,0,,,0
15410,2323,Charolais Blvd at Bach Blvd,,43.662859,-79.746636,,,0,,,0
15420,2324,Charolais Blvd e/of McLaughlin Rd,,43.660894,-79.748612,,,0,,,0
15430,2325,Charolais Blvd w/of McLaughlin Rd,,43.659459,-79.750215,,,0,,,1
15440,2326,Moffatt Ave at Plaxton Gate,,43.657768,-79.750066,,,0,,,1
15450,2327,Moffatt Ave opp Banting Cres,,43.656419,-79.748593,,,0,,,1
15460,2328,Moffatt Ave at Talon Gate,,43.654941,-79.748792,,,0,,,1
15470,2329,Duggan Dr n/of Moffatt Ave,,43.652799,-79.751515,,,0,,,1
15480,2330,Duggan Dr s/of Karen Crt,,43.653719,-79.754136,,,0,,,1
15500,2332,Charolais Blvd w/of Duggan Dr,,43.653403,-79.757092,,,0,,,1
15510,2333,Charolais Blvd at Torrance Woods,,43.652078,-79.75843,,,0,,,1
15513,2334,S Chinguacousy Rd at Charolais Blvd,,43.650154,-79.759507,,,0,,,1
15515,2335,Chinguacousy Rd btwn Charolais Blvd & Steeles Ave,,43.648731,-79.757565,,,0,,,0
15517,2336,N Chinguacousy Rd at Charolais Blvd,,43.651162,-79.760129,,,0,,,1
15520,2337,Chinguacousy Rd btwn Charolais Blvd & Drinkwater,,43.653104,-79.762895,,,0,,,1
15540,2339,Drinkwater Rd at St. Augustine S.S.,,43.658359,-79.766158,,,0,,,1
15550,2340,Drinkwater Rd e/of Lockwood Rd,,43.659563,-79.76526,,,0,,,1
15620,2348,Queen St w/of Lockwood Rd,,43.668581,-79.77897,,,0,,,1
15630,2349,Queen St W at Sobey's Entrance (WB),,43.668223,-79.779834,,,0,,,1
15650,2351,Chinguacousy Rd at Burt Dr,,43.670159,-79.786244,,,0,,,1
15660,2352,Chinguacousy Rd at Flowertown Ave,,43.673598,-79.790878,,,0,,,1
15670,2353,Chinguacousy Rd n/of Major William Sharpe Dr,,43.676928,-79.79537,,,0,,,1
15680,2354,Chinguacousy Rd n/of Williams Pky W,,43.682363,-79.80271,,,0,,,1
15690,2355,Chinguacousy Rd n/of Olde Town Rd,,43.684446,-79.805705,,,0,,,1
15695,2356,N Chinguacousy Rd at Bovaird Dr,,43.685889,-79.807686,,,0,,,1
15700,2357,Chinguacousy Rd n/of Bovaird Dr,,43.687024,-79.809262,,,0,,,1
15710,2358,Chinguacousy Rd opp Grovewood Dr,,43.688608,-79.811416,,,0,,,1
15720,2359,Chinguacousy Rd opp Fandor Way,,43.691395,-79.815139,,,0,,,1
15730,2360,Chinguacousy Rd at Duffield Rd,,43.692897,-79.817152,,,0,,,1
15735,2361,Chinguacousy Rd btwn Duffield Rd and Sandalwood Pk,,43.694953,-79.81994,,,0,,,1
15740,2362,Chinguacousy Rd s/of Sandalwood Pky,,43.696611,-79.822166,,,0,,,1
15750,2363,Chinguacousy Rd at Grape Trail,,43.699468,-79.826005,,,0,,,1
15780,2367,Brisdale Dr s/of Botavia Downs,,43.696529,-79.834329,,,0,,,1
15790,2368,Brisdale Dr s/of El Camino Way,,43.694752,-79.831863,,,0,,,1
15800,2369,Brisdale Dr n/of Sandalwood Pky,,43.693563,-79.830249,,,0,,,1
15810,2370,Brisdale Dr s/of McCrimmon Dr,,43.691252,-79.827048,,,0,,,1
15820,2371,Brisdale Dr opp Sandy Beach Rd,,43.689594,-79.824806,,,0,,,1
15840,2374,Brisdale Dr n/of Continental Rd,,43.687989,-79.820534,,,0,,,1
15845,2375,Brisdale Dr at 120 Brisdale Dr,,43.687276,-79.818217,,,0,,,1
15850,2376,Brisdale Dr at Grovewood Dr,,43.684845,-79.814834,,,0,,,1
15860,2377,Brisdale Dr at Bovaird Dr W,,43.683579,-79.812599,,,0,,,0
15870,2378,Worthington - Zum Bovaird Station Stop WB,,43.681027,-79.814538,,,0,,,1
15875,2379,Bovaird Dr e/of Lagerfeld Dr,,43.673601,-79.821685,,,0,,,1
15880,2380,Mount Pleasant GO Station Route 4C Stop,,43.674525,-79.821909,,,0,place_MPGO,,1
15895,2381,Bovaird Dr e/of Ashby Field Rd,,43.673245,-79.821598,,,0,,,1
15900,2382,Lake Louise - Zum Bovaird Station Stop EB,,43.680984,-79.813953,,,0,,,1
15910,2383,Brisdale Dr n/of Bovaird Dr W,,43.683806,-79.812666,,,0,,,1
15920,2384,Brisdale Dr s/of Grovewood Dr,,43.68483,-79.814572,,,0,,,1
15930,2385,Brisdale Dr s/of Linderwood Dr,,43.68636,-79.816658,,,0,,,0
15940,2386,Brisdale Dr s/of Fairhill Dr,,43.688097,-79.820575,,,0,,,1
16030,2387,Chinguacousy Rd s/of Botavia Downs Dr,,43.701114,-79.828844,,,0,,,1
16040,2388,Chinguacousy Rd opp Grape Trail,,43.699615,-79.826781,,,0,,,1
16050,2389,Chinguacousy Rd n/of Sandalwood Pky,,43.696973,-79.823251,,,0,,,1
16070,2391,Chinguacousy Rd at Fairhill Ave,,43.693156,-79.81808,,,0,,,1
16080,2392,Chinguacousy Rd at Fandor Way,,43.691065,-79.815261,,,0,,,1
16090,2393,Chinguacousy Rd n/of Grovewood Dr,,43.688653,-79.812004,,,0,,,1
16100,2394,S Chinguacousy Rd at Bovaird Dr,,43.686408,-79.808933,,,0,,,1
16110,2395,Chinguacousy Rd s/of Marotta Ave,,43.683642,-79.805169,,,0,,,1
16120,2396,Chinguacousy Rd n/of Williams Pkwy,,43.682024,-79.802937,,,0,,,1
16130,2397,Chinguacousy Rd n/of Valleyway Dr,,43.676571,-79.795542,,,0,,,1
16140,2398,Chinguacousy Rd opp Flowertown Ave,,43.673722,-79.791647,,,0,,,1
16150,2399,Chinguacousy Rd n/of Daviselm Dr,,43.670305,-79.787099,,,0,,,1
16170,2401,Chinguacousy - Zum Queen West Station Stop EB,,43.66685,-79.780859,,,0,,,1
16250,2410,Drinkwater Rd at Ready Crt (St. Augustine S.S.),,43.65827,-79.766349,,,0,,,1
16270,2412,Chinguacousy Rd n/of Charolais Blvd,,43.652645,-79.762855,,,0,,,1
16280,2413,Charolais Blvd at Moffatt Ave (W),,43.651593,-79.758618,,,0,,,1
16290,2414,Charolais Blvd at Duggan Dr,,43.653481,-79.756801,,,0,,,1
16310,2416,Duggan Dr s/of Matterdale Ave,,43.653601,-79.754245,,,0,,,0
16320,2417,Moffatt Ave e/of Duggan Dr,,43.652851,-79.750857,,,0,,,1
16330,2418,Moffatt Ave at Tait Blvd,,43.654528,-79.748989,,,0,,,1
16340,2419,Moffatt Ave at Banting Cres,,43.656088,-79.74831,,,0,,,1
16350,2420,Moffatt Ave at Charolais Blvd,,43.658379,-79.750834,,,0,,,1
16360,2421,Charolais Blvd at McLaughlin Rd,,43.659744,-79.749526,,,0,,,1
16370,2422,Charolais Blvd at Peelton Heights,,43.662346,-79.746915,,,0,,,1
16380,2423,Charolais Blvd e/of Keystone Dr,,43.664087,-79.745027,,,0,,,0
16430,2424,Mount Pleasant GO Station Route 60 Stop,,43.674458,-79.822664,,,0,place_MPGO,,1
16450,2425,Bovaird Dr W e/of Pertosa Dr,,43.683293,-79.811408,,,0,,,1
16460,2426,Chinguacousy - Zum Bovaird Station Stop EB,,43.686607,-79.807843,,,0,,,1
16470,2427,Bovaird Dr W e/of Fletchers Creek Blvd,,43.691751,-79.802232,,,0,,,1
16480,2428,McLaughlin - Zum Bovaird Station Stop EB,,43.696252,-79.796914,,,0,,,1
16490,2429,Bovaird Dr W e/of Royal Orchard Dr,,43.698533,-79.794302,,,0,,,1
16500,2430,Bovaird Dr W at Gillingham Dr,,43.702838,-79.78975,,,0,,,1
16510,2431,Main - Zum Bovaird Station Stop EB,,43.706446,-79.785766,,,0,,,1
16520,2432,Bovaird Dr w/of Yellow Brick Rd,,43.708255,-79.783865,,,0,,,1
16530,2433,Bovaird Dr E at Hinchley Wood Grove,,43.712369,-79.780002,,,0,,,1
16540,2434,Kennedy - Zum Bovaird Station Stop EB,,43.716331,-79.775795,,,0,,,1
16550,2435,Bovaird Dr E w/of Langston Dr,,43.718526,-79.773358,,,0,,,1
16560,2436,Southlake - Zum Bovaird Station Stop EB,,43.721253,-79.769879,,,0,,,1
16565,2437,Bovaird Dr E e/of Nasmith St,,43.730616,-79.759068,,,0,,,1
16570,2438,Great Lakes Dr at Nautical Dr,,43.73114,-79.761122,,,0,,,1
16580,2439,Great Lakes Dr btwn Nautical Dr & Guru Nanak St,,43.732365,-79.763209,,,0,,,1
16600,2441,Bovaird Dr E btwn Nasmith St & Dixie Rd,,43.73172,-79.757841,,,0,,,1
16630,2444,Bovaird Dr E e/of MacKay St,,43.738338,-79.750512,,,0,,,1
16635,2445,Bovaird Dr E btwn Fernforest Dr & Bramalea Rd,,43.74007,-79.748602,,,0,,,1
16645,2447,Bramalea Rd s/of Bovaird Dr E,,43.743671,-79.743495,,,0,,,1
16650,2448,Bovaird Dr w/of Professor's Lake Pkwy,,43.748595,-79.739592,,,0,,,1
16665,2450,Bovaird Dr btwn Professor's Lake Pkwy & Torbram Rd,,43.751592,-79.736841,,,0,,,1
16670,2451,Torbram - Zum Bovaird Station Stop EB,,43.754742,-79.733222,,,0,,,1
16680,2452,Bovaird Dr w/of Sunnyvale Gate,,43.757443,-79.730165,,,0,,,1
16690,2453,Bovaird Dr E btwn Sunnyvale Gate & Airport Rd,,43.759999,-79.726178,,,0,,,1
16700,2454,Airport Road - Zum Bovaird Station Stop EB,,43.762718,-79.722761,,,0,,,1
16710,2455,Castlemore Rd e/of Airport Rd,,43.764171,-79.721012,,,0,,,1
16715,2456,Castlemore Rd w/of Horizon St,,43.767621,-79.71679,,,0,,,1
16720,2457,Castlemore Rd e/of Bayridge Dr,,43.769797,-79.714385,,,0,,,1
16740,2459,Goreway Dr at Cottrelle Blvd,,43.770045,-79.707385,,,0,,,1
16750,2460,Goreway Dr at 9658 Goreway Dr,,43.765667,-79.701461,,,0,,,0
16755,2461,Goreway Dr at 9370 Goreway Dr,,43.760328,-79.694314,,,0,,,0
16760,2462,Goreway Dr opp Yorkland Blvd,,43.758774,-79.692179,,,0,,,0
16770,2463,Goreway Dr at 9186 Goreway Dr,,43.756914,-79.689683,,,0,,,0
16780,2464,Goreway Dr s/of Queen St E,,43.752467,-79.683946,,,0,,,1
16785,2465,Goreway Dr at Auction Lane,,43.75141,-79.682535,,,0,,,1
16790,2466,Goreway Dr n/of Deerhurst Dr,,43.74938,-79.679759,,,0,,,1
16800,2467,Goreway Dr opp Armthorpe Rd,,43.74505,-79.674095,,,0,,,1
16810,2468,Goreway Dr opp 8495 Goreway Dr,,43.743322,-79.671759,,,0,,,1
16820,2469,Goreway Dr at Intermodal Dr,,43.739625,-79.66696,,,0,,,1
16830,2470,Goreway Dr btwn Hwy 407 Ramp & Steeles Ave E,,43.733562,-79.658943,,,0,,,1
15090714,2471,Steeles Ave w/of Mavis Rd,,43.646217,-79.75483,,,0,,,1
15090715,2472,Mavis Rd s/of Ray Lawson Blvd,,43.641652,-79.746422,,,0,,,1
15090716,2473,Mavis Rd s/of Knotty Pines Grove,,43.636751,-79.727334,,,0,,,1
15090717,2474,Mavis Rd n/of Envoy Dr,,43.635641,-79.725337,,,0,,,1
15090718,2475,Derry Rd w/of McLaughlin Rd,,43.636151,-79.717017,,,0,,,1
15090719,2476,Derry Rd w/of Maritz Dr,,43.643129,-79.709259,,,0,,,1
16940,2477,Goreway Dr n/of Kenview Blvd,,43.73075,-79.654595,,,0,,,1
16970,2479,Goreway Dr n/of Intermodal Dr,,43.739841,-79.666633,,,0,,,1
16980,2480,Goreway Dr at 8495 Goreway Dr,,43.742998,-79.670708,,,0,,,1
16990,2481,Goreway Dr at Armthorpe Rd,,43.744738,-79.673008,,,0,,,1
17000,2482,Goreway Dr at btwn Armthorpe Rd & Deerhurst Dr,,43.7477,-79.67691,,,0,,,0
17010,2483,Goreway Dr at Deerhurst Dr,,43.749167,-79.678851,,,0,,,1
17020,2484,Goreway Dr opp Auction Lane,,43.751109,-79.681515,,,0,,,1
17025,2485,Goreway Dr s/of Queen St,,43.752637,-79.683498,,,0,,,1
17030,2486,Humberwest Pky n/of Queen St E,,43.753869,-79.685213,,,0,,,1
17035,2487,Humberwest Pky at Goreway Dr,,43.754933,-79.687458,,,0,,,1
17040,2488,Goreway Dr s/of Halliford Pl,,43.756555,-79.688893,,,0,,,1
17050,2489,Goreway Dr at Yorkland Blvd,,43.758734,-79.6918,,,0,,,0
17060,2490,Goreway Dr at 9400 Goreway Dr,,43.760726,-79.694556,,,0,,,0
17070,2491,Goreway Dr opp 9658 Goreway Dr,,43.765816,-79.701379,,,0,,,0
17075,2492,Goreway Dr n/of Cottrelle Blvd,,43.770524,-79.707765,,,0,,,1
17090,2494,Airport Road - Zum Bovaird Station Stop WB,,43.762611,-79.723553,,,0,,,1
17100,2495,Bovaird Dr E btwn Airport Rd & Mountainash Rd,,43.760286,-79.726476,,,0,,,0
17120,2496,Torbram - Zum Bovaird Station Stop WB,,43.754069,-79.73467,,,0,,,1
17125,2497,Bovaird Dr btwn Torbram Rd and Sunny Meadow Blvd,,43.751865,-79.737158,,,0,,,1
17130,2498,Bovaird Dr w/of Sunny Meadow Blvd,,43.748868,-79.73996,,,0,,,1
17135,2499,Brampton Civic Hospital - Zum Bovaird Stop WB,,43.74689,-79.741728,,,0,,,1
17145,2501,Brampton Civic Hospital - Zum Bovaird Stop EB,,43.74686,-79.741131,,,0,,,1
17150,2502,Bramalea - Zum Bovaird Station Stop WB,,43.744058,-79.744888,,,0,,,1
17155,2503,Bovaird Dr E btwn Bramalea Rd & Fernforest Dr,,43.740804,-79.748436,,,0,,,1
17160,2504,Bovaird Dr E w/of Fernforest Dr,,43.737782,-79.751756,,,0,,,1
17180,2507,Bovaird Dr E at Great Lakes Dr,,43.730541,-79.759797,,,0,,,1
17220,2510,Bovaird Dr E at Richvale Dr S,,43.719716,-79.772423,,,0,,,1
17230,2511,Kennedy - Zum Bovaird Station Stop WB,,43.715386,-79.777406,,,0,,,1
17240,2512,Bovaird Dr E at Conestoga Dr,,43.713417,-79.779518,,,0,,,1
17250,2513,Bovaird Dr E w/of Sunforest Dr,,43.708391,-79.784304,,,0,,,1
17260,2514,Bovaird Dr E e/of Hurontario St,,43.706577,-79.786364,,,0,,,1
17270,2515,Main - Zum Bovaird Station Stop WB,,43.705478,-79.787576,,,0,,,1
17280,2516,Bovaird Dr W w/of Gillingham Dr,,43.703023,-79.790207,,,0,,,1
17290,2517,Bovaird Dr W w/of Van Kirk Dr,,43.697781,-79.795834,,,0,,,1
17310,2519,Bovaird Dr W w/of Edenbrook Hill Dr,,43.691035,-79.803712,,,0,,,1
17320,2520,Chinguacousy - Zum Bovaird Station Stop WB,,43.685958,-79.809124,,,0,,,1
17330,2521,Bovaird Dr W e/of Brisdale Dr,,43.683682,-79.811611,,,0,,,1
15090720,2522,E Derry Rd w/of Hurontario St,,43.645689,-79.706253,,,0,,,1
15090721,2523,Derry Rd e/of McLaughlin Rd,,43.63695,-79.716752,,,0,,,1
15090722,2524,Mavis Rd s/of Kaiser Dr,,43.635582,-79.724597,,,0,,,1
15090723,2525,Mavis Rd s/of Twain Ave,,43.637364,-79.727903,,,0,,,1
15090724,2526,Mavis Rd at Ray Lawson Blvd,,43.641985,-79.746461,,,0,,,1
15090725,2527,Mavis Rd opp Clementine Dr,,43.643436,-79.749552,,,0,,,1
15090726,2528,James Potter Rd s/of Young Dr,,43.650169,-79.763621,,,0,,,1
15090727,2529,James Potter Rd opp Fahey Dr,,43.651709,-79.766599,,,0,,,1
15090728,2530,James Potter Rd s/of Dusk Dr,,43.653405,-79.768851,,,0,,,1
15090729,2531,Spar Dr s/of Williams Pkwy,,43.754006,-79.705231,,,0,,,0
15090730,2532,Spar Dr n/of Ward Rd,,43.752522,-79.702982,,,0,,,0
15090731,2533,Ward Rd at 73 Ward Rd,,43.755892,-79.698537,,,0,,,0
15090732,2534,Edvac Dr n/of Williams Pkwy,,43.761162,-79.701432,,,0,,,0
15090733,2535,Edvac Dr at 13 Edvac Dr,,43.76218,-79.704627,,,0,,,0
15090734,2536,Automatic Rd w/of Edvac Dr,,43.762167,-79.707079,,,0,,,1
15090735,2537,Automatic Rd at 38 Automatic Rd,,43.760392,-79.708991,,,0,,,0
15090736,2538,Automatic Rd at 26 Automatic Rd,,43.75882,-79.71072,,,0,,,0
15090737,2539,Automatic Rd at 16 Automatic Rd,,43.756928,-79.71075,,,0,,,0
17525,2540,The Gore Rd n/of Highway 50,,43.758399,-79.644485,,,0,,,1
17530,2541,The Gore Rd opp Manswood Cres (S),,43.761226,-79.648296,,,0,,,1
17540,2542,The Gore Rd opp Manswood Cres (N),,43.76365,-79.65157,,,0,,,1
17550,2543,The Gore Rd n/of Queen St,,43.766442,-79.655656,,,0,,,1
17555,2544,The Gore Rd s/of Fogal Rd,,43.769367,-79.659158,,,0,,,1
17560,2545,The Gore Rd s/of Ebenezer Rd,,43.771825,-79.662653,,,0,,,1
17563,2546,The Gore Rd n/of Ebenezer Rd,,43.773063,-79.664257,,,0,,,1
17605,2551,Cottrelle Blvd e/of Westbrook Ave,,43.777084,-79.676822,,,0,,,1
17620,2553,The Gore Rd s/of Panahill Dr,,43.782562,-79.67739,,,0,,,1
17623,2554,The Gore Rd s/of Cottrelle Blvd,,43.779677,-79.67299,,,0,,,1
17625,2555,The Gore Rd s/of Gardenbrooke Trail,,43.78281,-79.677238,,,0,,,1
17627,2556,Castle Oaks w/of Literacy Dr,,43.789204,-79.681022,,,0,,,1
17628,2557,The Gore Rd n/of Cottrelle Blvd,,43.780112,-79.67415,,,0,,,1
17630,2558,The Gore Rd n/of Eastview Gate,,43.777891,-79.671176,,,0,,,1
17675,2563,Via Romano Way btwn Alfredo and Big Moe Cres,,43.778718,-79.658907,,,0,,,1
17680,2564,Via Romano Way at Zia Dodda Cres,,43.780399,-79.66021,,,0,,,1
17690,2565,Via Romano Way btwn Zia Dodda & Youngestar,,43.78172,-79.661881,,,0,,,1
17700,2566,Via Romano Way s/of Rednor Dr,,43.783084,-79.663281,,,0,,,1
17740,2570,The Gore Rd opp Fogal Rd,,43.769219,-79.659492,,,0,,,1
17745,2571,The Gore Rd n/of Royton St,,43.770475,-79.6613,,,0,,,1
17750,2572,The Gore Rd at Queen St,,43.766366,-79.656129,,,0,,,1
17755,2573,The Gore Rd n/of Manswood Cres (N),,43.763395,-79.651584,,,0,,,1
17760,2574,The Gore Rd n/of Manswood Cres (S),,43.761755,-79.649332,,,0,,,1
17770,2575,The Gore Rd n/of Hwy 50,,43.757814,-79.643769,,,0,,,1
15090738,2576,Automatic Rd at 6 Automatic Rd,,43.755556,-79.708895,,,0,,,0
15090739,2577,Derry Rd w/of Vicar Gate,,43.633009,-79.721307,,,0,,,1
15090740,2578,Derry Rd w/of St. Barbara Blvd,,43.63901,-79.713845,,,0,,,0
15090741,2579,Derry Rd e/of St. Barbara Blvd,,43.639578,-79.713826,,,0,,,0
15090742,2580,Derry Rd e/of Mavis Rd,,43.633204,-79.721807,,,0,,,1
15090743,2581,E Ward Rd e/of Spar Dr,,43.753452,-79.701361,,,0,,,0
15090745,2582,Fernforest Dr s/of Sahara Trail,,43.751122,-79.764901,,,0,,,1
15090746,2583,Fernforest Dr n/of Dewside Dr,,43.752754,-79.767142,,,0,,,1
15090750,2585,Countryside Dr e/of Blackstone River Dr,,43.75681,-79.779258,,,0,,,1
17960,2590,County Court Blvd opp Turtlecreek Blvd,,43.662763,-79.725973,,,0,,,1
17970,2591,County Court Blvd opp Seminole Dr,,43.664241,-79.72387,,,0,,,1
17980,2592,County Court Blvd opp Mossbank Dr (S),,43.66381,-79.721587,,,0,,,1
17990,2593,County Court opp Havelock Dr (E),,43.66171,-79.72048,,,0,,,1
18000,2594,County Court Blvd opp Havelock Dr (W),,43.660455,-79.721449,,,0,,,1
18010,2595,County Court Blvd opp Ray Lawson Blvd,,43.658944,-79.723195,,,0,,,1
18020,2596,Ray Lawson Blvd e/of Malta Ave,,43.65671,-79.725664,,,0,,,1
18030,2597,Ray Lawson Blvd opp Cherrytree Dr (W),,43.654435,-79.728097,,,0,,,1
18040,2598,Ray Lawson Blvd at Timberlane Dr,,43.653284,-79.732414,,,0,,,1
18050,2599,Ray Lawson Blvd at McLaughlin Rd S,,43.651472,-79.736156,,,0,,,1
18053,2600,McLaughlin Rd btwn Ray Lawson Blvd & Kingknoll Dr,,43.652505,-79.738049,,,0,,,1
18055,2601,McLaughlin Rd s/of Sheridan College Dr,,43.653913,-79.739853,,,0,,,1
18060,2602,McLaughlin Rd S s/of Ray Lawson Blvd,,43.650602,-79.735991,,,0,,,1
18070,2603,McLaughlin Rd S at Oaklea Blvd,,43.647993,-79.7325,,,0,,,1
18080,2604,Oaklea Blvd at Pauline Vanier E.S.(56 Oaklea Blvd),,43.646531,-79.733871,,,0,,,1
18100,2606,Oaklea Blvd opp Rodwell Crt,,43.646087,-79.737627,,,0,,,1
18110,2607,Ray Lawson Blvd at Stalbridge Ave,,43.646154,-79.739601,,,0,,,1
18120,2608,Ray Lawson Blvd at Hickory Wood Jr. E.S.,,43.645693,-79.742438,,,0,,,1
18130,2609,Ray Lawson Blvd at Kingknoll Dr,,43.644386,-79.744714,,,0,,,1
18135,2610,Kingknoll Dr n/of Ray Lawson Blvd,,43.644545,-79.745605,,,0,,,1
18150,2612,Kingknoll Dr opp Pennsylvania Ave,,43.64677,-79.747148,,,0,,,1
18170,2614,Kingknoll Dr / Tulip Ave,,43.649432,-79.744753,,,0,,,1
18180,2615,Kingknoll Dr w/of Windmill Blvd,,43.651506,-79.743115,,,0,,,1
18190,2616,Kingknoll Dr at 45 Kingknoll Dr (w/of McLaughlin),,43.653275,-79.741217,,,0,,,1
18205,2618,Sheridan Rt 53 WB Stop,,43.656442,-79.740551,,,0,place_SHER,,1
18290,2623,Central Park Dr n/of Hanover Rd,,43.722177,-79.724262,,,0,,,1
18300,2624,Central Park Dr n/of Howden Blvd,,43.724836,-79.727029,,,0,,,1
18310,2625,Central Park Dr e/of Hilldale Cres (W),,43.726374,-79.727756,,,0,,,1
18370,2626,Bramalea Rd n/of Trillium Crt,,43.740591,-79.7389,,,0,,,0
18380,2627,Bramalea Rd at Professor's Lake Pky,,43.741536,-79.740157,,,0,,,0
18425,2632,Bovaird Dr e/of Sunny Meadow Blvd,,43.749794,-79.739275,,,0,,,1
18430,2633,Sunny Meadow Blvd s/of Thunderbird Trail,,43.75037,-79.740928,,,0,,,0
18440,2634,Sunny Meadow Blvd s/of Peter Robertson Blvd,,43.751681,-79.741752,,,0,,,1
18540,2635,Fernforest Dr opp Kimberly Cres (S),,43.741494,-79.754287,,,0,,,1
18550,2636,Fernforest Dr at Softneedle Ave,,43.739289,-79.753081,,,0,,,1
18560,2637,MacKay St N s/of Bovaird Dr E,,43.73763,-79.750503,,,0,,,0
18570,2638,Mackay St N s/of Middleton Way,,43.736462,-79.748493,,,0,,,1
18580,2639,Mackay St N at Mayberry Crt,,43.735736,-79.74725,,,0,,,1
18590,2640,Mackay St N at Ashton Cres,,43.735325,-79.74549,,,0,,,1
18600,2641,Mackay St N opp Morley Cres (S),,43.735246,-79.743929,,,0,,,1
18610,2642,Mackay St S at Mangrove Rd,,43.734403,-79.741308,,,0,,,0
18630,2644,Mackay St S at Maitland St,,43.733307,-79.737456,,,0,,,1
18640,2645,Mackay St S n/of Mayfair Cres,,43.732067,-79.735343,,,0,,,0
18660,2647,Williams Pky E opp Mansfield St (W),,43.727327,-79.739715,,,0,,,1
18670,2648,Williams Pky E opp Mansfield St (E),,43.728898,-79.737316,,,0,,,1
18680,2649,Dixie Rd s/of Williams Pky E,,43.724933,-79.741796,,,0,,,1
18690,2650,Dixie Rd at Lascelles Blvd,,43.723228,-79.739508,,,0,,,1
18700,2651,Dixie Rd opp Crescent Hill Dr (S),,43.721061,-79.736547,,,0,,,0
18710,2652,Dixie Rd at Howden Blvd,,43.719402,-79.73437,,,0,,,1
18720,2653,Dixie Rd at Hazelwood Dr,,43.718208,-79.732758,,,0,,,0
18730,2654,Dixie Rd at Hillside Dr (n/of Queen St E),,43.716109,-79.730022,,,0,,,1
18740,2655,Dixie Rd at Lisa St,,43.713347,-79.726415,,,0,,,1
18870,2656,Hurontario St s/of Perth St,,43.727992,-79.816726,,,0,,,1
18885,2658,Hurontario St s/of Roycrest St,,43.730397,-79.820099,,,0,,,1
18920,2662,Mayfield Rd opp Summer Valley Dr,,43.736164,-79.822183,,,0,,,1
18930,2663,Mayfield Rd w/of Inder Heights Dr,,43.740521,-79.817654,,,0,,,1
18940,2664,Mayfield Rd w/of Kennedy Rd,,43.743348,-79.814669,,,0,,,0
18950,2665,Kennedy Rd N s/of Kenpark Ave,,43.741911,-79.812274,,,0,,,0
18960,2666,Kennedy Rd N at Carnforth Dr,,43.738572,-79.80772,,,0,,,1
18970,2667,Kennedy Rd N opp Christie Dr,,43.737268,-79.805923,,,0,,,1
19060,2668,Sandalwood Pkwy w/of Kennedy Rd,,43.727864,-79.793488,,,0,,,1
19070,2669,Kennedy Rd N opp Piedmont Dr,,43.725764,-79.790272,,,0,,,1
19080,2670,Kennedy Rd N opp Heart Lake Medical Bldg,,43.724146,-79.78802,,,0,,,1
19090,2671,Kennedy Rd N at Ruth Ave,,43.72302,-79.786494,,,0,,,1
19100,2672,Kennedy Rd N btwn Ruth Ave & Wexford Rd,,43.721024,-79.783763,,,0,,,1
19110,2673,Kennedy Rd N at Wexford Rd,,43.719507,-79.781711,,,0,,,1
19120,2674,Kennedy Rd n/of Bovaird Dr,,43.716266,-79.777378,,,0,,,1
19130,2675,Kennedy Rd N btwn Bovaird Dr E & Centre St N,,43.713689,-79.773852,,,0,,,1
19140,2676,Kennedy Rd N at Centre St N,,43.711669,-79.771202,,,0,,,1
19150,2677,Kennedy Rd N btwn Centre St N & Williams Pky E,,43.709789,-79.768588,,,0,,,1
19160,2678,Kennedy Rd n/of Williams Pky,,43.708471,-79.766922,,,0,,,1
19170,2680,Kennedy Rd N at Linkdale Rd,,43.706142,-79.763755,,,0,,,1
19180,2681,Kennedy Rd at Vodden St,,43.702714,-79.759125,,,0,,,1
19190,2682,Kennedy Rd N opp Centennial Mall Private Entrance,,43.701408,-79.757375,,,0,,,1
19200,2683,Kennedy Rd N at Edgemont Dr,,43.700032,-79.755547,,,0,,,1
19210,2684,Kennedy Rd N at McCaul St,,43.698765,-79.753844,,,0,,,1
19220,2685,Kennedy Rd N at Church St E,,43.69775,-79.752485,,,0,,,1
19230,2686,Kennedy Rd S s/of Queen St E,,43.695192,-79.749143,,,0,,,1
19240,2687,Kennedy Rd S s/of Eastern Ave,,43.693508,-79.74682,,,0,,,0
19250,2689,S Kennedy Rd S at Orenda Rd,,43.692361,-79.745272,,,0,,,1
19260,2690,Kennedy Rd n/of Clarence St,,43.689892,-79.742022,,,0,,,1
19270,2691,Kennedy Rd S at Research Rd,,43.687994,-79.739425,,,0,,,1
19280,2692,Kennedy Rd S at Dean St,,43.686851,-79.737877,,,0,,,1
19290,2693,Kennedy Rd S at Tullamore Crt (Tullamore Nursing),,43.684991,-79.73537,,,0,,,0
19300,2694,Kennedy Rd S s/of Tullamore Crt,,43.683713,-79.733642,,,0,,,1
19310,2695,Kennedy Rd S at Chamney Crt,,43.682276,-79.73173,,,0,,,1
19320,2696,Kennedy Rd s/of Chamney Crt,,43.681153,-79.730235,,,0,,,1
19330,2697,Kennedy Rd S s/of Rambler Dr,,43.678763,-79.727026,,,0,,,1
19340,2698,Kennedy Rd S at 365 Kennedy Rd S,,43.677296,-79.725066,,,0,,,1
19350,2699,Kennedy Rd n/of Steeles Ave,,43.676309,-79.723769,,,0,,,1
19360,2700,Kennedy Rd S s/of Steeles Ave E,,43.67492,-79.721916,,,0,,,1
19370,2701,Kennedy Rd S at Hartford Trail,,43.672711,-79.718161,,,0,,,1
19372,2702,Kennedy Rd S at Brampton Golf Club (7700 Kennedy),,43.669734,-79.714209,,,0,,,0
19375,2703,Kennedy Rd at 7580 Kennedy Rd,,43.667935,-79.711814,,,0,,,1
15090756,2706,Ganton Heights e/of Creditview Rd,,43.676196,-79.828631,,,0,,,1
15090757,2707,Veterans Dr s/of Aylesbury Dr,,43.676953,-79.833812,,,0,,,1
15090758,2708,Veterans Dr opp Tysonville Cir,,43.679124,-79.838247,,,0,,,1
15090759,2709,Veterans Dr n/of Battalion Rd,,43.681233,-79.841322,,,0,,,1
15090760,2710,Robert Parkinson Dr n/of Buick Blvd,,43.69105,-79.8429,,,0,,,1
15090761,2711,Robert Parkinson Dr s/of Bannister Cres,,43.691945,-79.844451,,,0,,,1
15090762,2712,Robert Parkinson Dr s/of Polstar Rd,,43.693667,-79.846417,,,0,,,1
15090763,2713,Robert Parkinson Dr s/of Wanless Dr,,43.694583,-79.847776,,,0,,,1
15090764,2714,Robert Parkinson Dr s/of Remembrance Rd,,43.69635,-79.850534,,,0,,,1
15090767,2717,Robert Parkinson Dr s/of Eckford Lane,,43.693392,-79.846213,,,0,,,1
15090768,2718,Robert Parkinson Dr n/of Allium Rd,,43.691954,-79.844697,,,0,,,1
15090769,2719,Robert Parkinson Dr at Buick Blvd,,43.690919,-79.842967,,,0,,,1
15090770,2720,Robert Parkinson Dr n/of Giltspur Rd,,43.689496,-79.840964,,,0,,,1
15090771,2721,Robert Parkinson Dr n/of Killick Rd,,43.688088,-79.839931,,,0,,,1
15090773,2723,Veterans Dr s/of Dufay Rd,,43.680681,-79.840988,,,0,,,1
15090774,2724,Veterans Dr s/of Tysonville Cir,,43.67889,-79.837936,,,0,,,1
15090775,2725,Veterans Dr n/of Dublin Rd,,43.677041,-79.834295,,,0,,,1
19570,2726,Kennedy Rd S at CAA Centre,,43.66668,-79.709597,,,0,,,1
19575,2727,Kennedy Rd at 7725 Kennedy Rd,,43.669974,-79.714062,,,0,,,1
19610,2729,Kennedy Rd S n/of Steeles Ave E,,43.67623,-79.723212,,,0,,,1
19620,2730,Kennedy Rd S at 370 Kennedy Rd S,,43.677738,-79.725238,,,0,,,1
19630,2731,Kennedy Rd opp Rambler Dr,,43.679023,-79.727019,,,0,,,1
19640,2732,Kennedy Rd S n/of Rambler Dr,,43.680951,-79.729602,,,0,,,1
19650,2733,Kennedy Rd S at Glidden Rd,,43.68213,-79.731177,,,0,,,1
19660,2734,Kennedy Rd S opp Tullamore Rd,,43.684125,-79.733846,,,0,,,1
19670,2735,Kennedy Rd S at Stafford Dr,,43.685561,-79.735787,,,0,,,1
19680,2736,Kennedy Rd S opp Dean St (at 110 Kennedy Rd ),,43.687008,-79.737725,,,0,,,1
19690,2737,Kennedy Rd S opp Research Rd (at 90 Kennedy Rd ),,43.687906,-79.738914,,,0,,,1
19700,2738,Kennedy Rd s/of Clarence St,,43.689537,-79.741097,,,0,,,1
19710,2739,Kennedy Rd S n/of Orenda Rd,,43.693019,-79.745783,,,0,,,1
19720,2740,Kennedy Rd S at Eastern Ave,,43.693939,-79.747006,,,0,,,0
19730,2741,Kennedy Rd S at Queen St E,,43.695344,-79.748798,,,0,,,1
19740,2742,Kennedy Rd N opp Church St,,43.697629,-79.751934,,,0,,,1
19750,2743,Kennedy Rd N opp Edgemont Dr,,43.700271,-79.755425,,,0,,,1
19760,2744,Kennedy Rd N at Centennial Mall,,43.701558,-79.75713,,,0,,,1
19770,2745,Kennedy Rd n/of Vodden St,,43.703186,-79.759346,,,0,,,1
19780,2746,Kennedy Rd N at Townsend Gate,,43.705816,-79.762885,,,0,,,1
19790,2747,Kennedy Rd s/of Williams Pky,,43.708356,-79.766266,,,0,,,1
19800,2748,Kennedy Rd N n/of Williams Pky E,,43.709922,-79.768443,,,0,,,1
19810,2749,Kennedy Rd N at Rutherford Rd N,,43.711603,-79.7706,,,0,,,1
19820,2750,Kennedy Rd N btwn Rutherford Rd N & Bovaird Dr E,,43.713484,-79.773236,,,0,,,1
19830,2751,Kennedy Rd s/of Bovaird Dr,,43.715657,-79.775979,,,0,,,1
19840,2752,Kennedy Rd N at Notre Dame Ave,,43.719166,-79.780852,,,0,,,1
19850,2753,Kennedy Rd N btwn Notre Dame Ave & Cochrane Ave,,43.721192,-79.783648,,,0,,,1
19860,2754,Kennedy Rd N at Cochrane Ave,,43.72282,-79.785819,,,0,,,1
19870,2755,Kennedy Rd N at Heart Lake Medical,,43.724124,-79.787586,,,0,,,1
19880,2756,Kennedy Rd N at Piedmont Dr,,43.725734,-79.789823,,,0,,,1
19890,2757,Kennedy Rd N n/of Piedmont Dr,,43.727067,-79.791622,,,0,,,1
19900,2758,N Kennedy Rd at Sandalwood Pky,,43.727998,-79.792782,,,0,,,1
12495,2760,Heart Lake Terminal Route 7 NB - Departure,,43.72809,-79.79812,,,0,place_HTLK,,1
15090776,2761,Ganton Heights w/of Butterworth Rd,,43.676098,-79.827991,,,0,,,1
15090777,2762,Creditview Rd opp Aylesbury Dr,,43.684168,-79.82918,,,0,,,1
15110201,2767,Mississauga Rd s/of Howard Stewart Rd,,43.632496,-79.783139,,,0,,,1
15110202,2768,Sandalwood Pkwy e/of Creditview Rd,,43.689118,-79.834828,,,0,,,1
15110203,2769,Castlemore Rd w/of The Gore Rd,,43.790371,-79.691402,,,0,,,1
